都道府県コード又は市町村コード,No,都道府県名,市区町村名,事業所名,事業所名カナ,サービスの種類,住所,方書（ビル名等）,緯度,経度,電話番号,FAX番号,法人番号,法人の名称,事業所番号,利用可能曜日,利用可能曜日特記事項,定員,URL,高齢者の方と障害者の方が同時一体的に利用できるサービス,介護保険サービスの指定状況,障害福祉サービスの指定状況,備考
11011,110410545,北海道,札幌市中央区,慈啓会病院　（訪問リハビリテーション）,ジケイカイビョウイン　（ホウモンリハビリテーション）,訪問リハビリテーション,札幌市中央区旭ヶ丘5丁目6番50号,,43.036925700000000,141.323191700000000,011-561-8292,011-551-3862,,札幌慈啓会,110410545,平日,月曜・水曜のみ実施,,http://www.sapporojikeikai.or.jp/,,,,
12025,111415188,北海道,函館市,医療法人大庚会　訪問リハビリテーション事業所今整形外科,イリョウホウジンタイコウカイ　ホウモンリハビリテーションジギョウショコンセイケイゲカ,訪問リハビリテーション,北海道函館市本町30番36号,,41.787581200000000,140.753804900000000,0138-52-7551,0138-35-5385,,医療法人大庚会,111415188,平日.土曜日,なし,,http://www.kon-jp.com/,,,,
15148,116711094,北海道,枝幸町,枝幸町国民健康保険病院,エサシチョウコクミンケンコウホケンビョウイン,訪問リハビリテーション,北海道枝幸郡枝幸町北栄町１４７４番地１,,44.943149100000000,142.575786000000000,0163ー62ー2111,0163ー62ー2532,,枝幸町国民健康保険病院,116711094,平日,特になし,,http://esashi-hospital.jp/,,,,
11061,110510666,北海道,札幌市南区,医療法人　一仁会　南札幌脳神経外科,イリョウホウジン　イチジンカイ　ミナミサッポロノウシンケイゲカ,訪問リハビリテーション,北海道札幌市南区川沿2条3丁目2番32号,,43.000115500000000,141.331320900000000,011-572-0330,011-572-2151,,医療法人　一仁会　南札幌脳神経外科,110510666,平日,,0,msnsc.jp,,,,
12173,111013629,北海道,江別市,医療法人はるにれ北町クリニック,イリョウホウジンハルニレキタマチクリニック,訪問リハビリテーション,北海道江別市大麻北町607番地2,,43.089178100000000,141.499348400000000,011-386-2160,011-386-2180,,医療法人はるにれ,111013629,平日,-,0,http://www.irryo-harunire.or.jp,,,,
11011,110117702,北海道,札幌市中央区,南札幌病院　訪問リハビリテーション,ミナミサッポロビョウインホウモンリハビリテーション,訪問リハビリテーション,札幌市中央区南9条西7丁目1番23号,,43.048305600000000,141.348308200000000,011-511-3368,011-511-1862,,医療法人社団　清和会　南札幌病院,110117702,平日,,0,http://www.minamisapporo.or.jp,,,,
16659,114311327,北海道,弟子屈町,訪問リハビリステーション,ホウモンリハビリステーション,訪問リハビリテーション,川上郡弟子屈町湯の島３丁目１番５号,,43.489352900000000,144.453024000000000,015-482-7667,015-482-7670,,医療法人社団信診連,114311327,平日,,,http://www.sinsinren.or.jp/,,,,
11037,110214350,北海道,札幌市東区,医療法人社団英仁会　札苗病院,イリョウホウジンシャダンエイジンカイ　サツナエビョウイン,訪問リハビリテーション,北海道札幌市東区東苗穂７条２丁目８番２０号,,43.094838100000000,141.412755300000000,011-783-3311,011-783-3343,,医療法人社団英仁会,110214350,平日.土曜日,-,0,http://satsunae-hp.jp/,,,,
11070,110416518,北海道,札幌市西区,平和リハビリテーション病院,ヘイワリハビリテーションビョウイン,訪問リハビリテーション,北海道札幌市西区平和３０６番地1,,43.056040000000000,141.242871800000000,011-662-1771,011-662-1779,,医療法人社団静和会,110416518,平日.土曜日,,0,http://www.seiwa-kai.or.jp/heiwa-reha,,,,
11061,110511177,北海道,札幌市南区,もなみクリニック,モナミクリニック,訪問リハビリテーション,北海道札幌市南区川沿5条3丁目2-1,,42.992549700000000,141.331571100000000,011-578-5775,011-578-5776,,医療法人社団もなみ,110511177,平日.土曜日,火曜日・木曜日は15時までの営業時間訪問看護・リハビリ・訪問診療の時間は要相談,0,http://www.monami-cl.com/,,,,
11029,110218138,北海道,札幌市北区,医療法人社団北昂会ファミール内科　在宅医療センター,イリョウホウジンシャダンホッコウカイファミールナイカ　ザイタクイリョウセンター,訪問リハビリテーション,北海道札幌市北区北２９条西４丁目２番１－１５８ファミール札幌,ファミール札幌,43.096440368495700,141.342835388361000,011-746-3988,011-746-6722,8430005002024,医療法人社団北昂会ファミール内科,110218138,平日,,0,http://www.hokkoukai.com,,,,
11029,110219052,北海道,札幌市北区,医療法人訪友会　さっぽろ在宅医療クリニック,イリョウホウジンホウユウカイ　サッポロザイタクイリョウクリニック,訪問リハビリテーション,札幌市北区北37条西4丁目2-6　マンションブリッジ麻生橋元ビル1Ｆ,,43.104776300000000,141.339541700000000,011-708-3330,011-708-3331,,訪友会,110219052,平日,,38,http://www.spzaitaku.com/,,,,
11029,110213329,北海道,札幌市北区,医療法人社団札幌優翔館病院,イリョウホウジンシャダン　サッポロユウショウカンビョウイン,訪問リハビリテーション,北海道札幌市北区東茨戸２条２丁目８番２５号,,43.164768800000000,141.357989300000000,011-772-9211,011-772-9213,,医療法人社団札幌優翔館病院,110213329,平日.土曜日.祝日,,0,http://www.shoureikan.jp/yuushoukan/,,,,
11037,110219524,北海道,札幌市東区,札幌共立医院　訪問リハビリ事業所,サッポロキョウリツイイン　ホウモンリハビリジギョウショ,訪問リハビリテーション,北海道札幌市東区北48条東1丁目1番5号,,43.117582800000000,141.344471000000000,011-752-4101,011-752-4231,,医療法人為久会,110219524,平日,,50,http://www.sapkyo-hosp.jp,,,,
11037,110219243,北海道,札幌市東区,医療法人　北海道家庭医療学センター　栄町ファミリークリニック,イリョウホウジン　ホッカイドウカテイイリョウガクセンター　サカエマチファミリークリニック,訪問リハビリテーション,北海道札幌市東区北４１条東１５丁目１－１８,,43.112553700000000,141.365330600000000,011-723-8633,011-722-9387,,北海道家庭医療学センター,110219243,平日,水曜日午後は利用できません。,0,http://sakaemachi-fc.com/,,,,
11070,110415247,北海道,札幌市西区,医療法人　知仁会　八木整形外科病院,イリョウホウジン　チジンカイ　ヤギセイケイゲカビョウイン,訪問リハビリテーション,札幌市西区西野３条５丁目１番３５号,,43.077079700000000,141.277937600000000,011-663-3100,011-663-3883,,医療法人　知仁会　八木整形外科病院,110415247,平日,,30,http://www.yamanotedori.net/,,,,
11045,110513611,北海道,札幌市白石区,医療法人社団明日佳　白石明日佳病院,イリョウホウジンシャダンアスカ　シロイシアスカビョウイン,訪問リハビリテーション,北海道札幌市白石区東札幌5条5丁目2番5号,,43.050875600000000,141.394707000000000,011-823-5151,011-823-8290,1430005001734,医療法人社団明日佳,110513611,平日,,0,http://www.asuka-gp.or.jp/shiroishi/,,,,
11088,110514007,北海道,札幌市厚別区,医療法人　札幌徳洲会病院,サッポロトクシュウカイビョウイン,訪問リハビリテーション,北海道札幌市厚別区大谷地東1丁目1番1号,,43.029266100000000,141.447922600000000,011-890-1110,011-890-2202,1120005005403,医療法人　徳洲会,110514007,平日,,0,http://www2.satutoku.jp/,,,,
11088,150380087,北海道,札幌市厚別区,介護老人保健施設あつべつ,カイゴロウジンホケンシセツアツベツ,訪問リハビリテーション,札幌市厚別区厚別町山本750番地6号,,43.058543900000000,141.462566900000000,011-896-5020,011-896-5055,7430005000540,社会福祉法人栄和会,150380087,平日,なし,0,http://www.eiwakai.or.jp/,,,,
12181,117210054,北海道,赤平市,あかびら市立病院,アカビラシリツビョウイン,訪問リハビリテーション,北海道赤平市本町３丁目２番地,,37.109286500000000,138.244514400000000,0125-32-3211,0125-32-1141,,赤平市,117210054,平日,,0,http://akabira-hospital.jp/,,,,
16411,114711559,北海道,大樹町,大樹町立国民健康保険病院,タイキチョウリツコクミンケンコウホケンビョウイン,訪問リハビリテーション,北海道広尾郡大樹町暁町6番地2,,42.487888400000000,143.279769800000000,01558-6-3111,01558-6-3796,,大樹町,114711559,平日,,0,http://www.town.taiki.hokkaido.jp/soshiki/byouin/byouintop.html,,,,
12041,152980082,北海道,旭川市,老人保健施設かたくりの郷,ロウジンホケンシセツカタクリノサト,訪問リハビリテーション,北海道旭川市神楽３条４丁目２番１４号,,43.762224800000000,142.348051700000000,0166-63-1165,0166-62-7997,,医療法人道北勤労者医療協会,152980082,平日.土曜日,,,http://www.dohoku-kinikyo.or.jp,,,,
12122,156480022,北海道,留萌市,医療法人社団心優会訪問リハビリテーション季実の杜,イリョウホウジンシャダンシンユウカイホウモンリハビリテーションキミノモリ,訪問リハビリテーション,留萌市開運町１丁目５番１号,,43.940317700000000,141.648216900000000,0164-43-4400,0164-43-4407,,医療法人社団心優会,156480022,平日,,,,,,,
12319,111210563,北海道,恵庭市,恵庭南病院　訪問リハビリテーション,エニワミナミビョウイン　ホウモンリハビリテーション,訪問リハビリテーション,北海道恵庭市住吉町２丁目４－１４,,42.877354300000000,141.582820500000000,0123-32-3850,0123-32-1627,,医療法人社団　恵庭南病院,111210563,平日,-,,http://www.north-wind.ne.jp/~eniwa373/,,,,
16012,153880042,北海道,日高町,日高町立介護老人保健施設門別愛生苑,ヒダカチョウリツカイゴロウジンホケンシセツモンベツアイセイエン,訪問リハビリテーション,北海道沙流郡日高町門別本町29番地3,,42.480201100000000,142.069039700000000,01456-2-6611,01456-2-6600,,日高町立介護老人保健施設門別愛生苑,153880042,平日,,0,,,,,
13935,152180014,北海道,黒松内町,介護老人保健施設　湯の里・黒松内訪問リハビリテーション,カイゴロウジンホケンシセツ　ユノサト・クロマツナイホウモンリハビリテーション,訪問リハビリテーション,北海道寿都郡黒松内町字黒松内565-11,,42.657696200000000,140.312945400000000,0136-77-2120,0136-77-2080,5440005002190,社会福祉法人　黒松内つくし園,152180014,平日.祝日,営業時間は、月曜日から金曜日までとなります（祝日実施）,0,http://tsukushien.or.jp,,,,
15431,155280019,北海道,美幌町,社会医療法人恵和会　介護老人保健施設アメニティ美幌,シャカイイリョウホウジンケイワカイ　カイゴロウジンホケンシセツアメニティビホロ,訪問リハビリテーション,北海道網走郡美幌町字仲町二丁目三十八番地の二,,43.832639200000000,144.105174700000000,0152-75-2210,0152-75-2216,,社会医療法人恵和会,155280019,平日.土曜日,ただし、サービス提供時間は9時より移動開始、16時30分までに移動終了となる為そのサービス提供時間は訪問リハビリテーションサービスを提供する地域によって移動時間を考慮するものとする。,0,http://www.keiwakai.jp/amebiho/index.html,,,,
12084,155080039,北海道,北見市,医療法人社団煌生会　介護老人保健施設さくら,イリョウホウジンシャダンコウセイカイ　カイゴロウジンホケンシセツサクラ,訪問リハビリテーション,北海道北見市北光280番地6,,43.778747600000000,143.867806900000000,0157-68-1139,0157-68-1133,1460305000169,医療法人社団煌生会,155080039,平日,なし,,https://mintpia.jp/sakura/index.html,,,,
12076,174602615,北海道,帯広市,十勝勤医協帯広病院,トカチキンイキョウオビヒロビョウイン,訪問リハビリテーション,西9条南12丁目4番地,,42.917615100000000,143.192064300000000,0155-21-4111,0155-27-1168,6460105000414,医療法人十勝勤労者医療協会,174602615,平日,,,http://www.tokachi-kin-ikyo.or.jp,,,,
12076,154680011,北海道,帯広市,介護老人保健施設アメニティ帯広,カイゴロウジンホケンシセツアメニティオビヒロ,訪問リハビリテーション,帯広市西16条北1丁目27番地,,42.931158200000000,143.175049800000000,0155-36-1234,0155-35-6020,,医療法人社団刀圭会,154680011,平日,,,http://toukeikai.or.jp/,,,,
12025,111417424,北海道,函館市,ケアプラザ新函館・たけだクリニック,ケアプラザシンハコダテタケダクリニック,訪問リハビリテーション,北海道函館市宮前町２７番１１号,,41.790736000000000,140.738264300000000,0138-62-3100,0138-62-3060,,ケアプラザ新函館・たけだクリニック,111417424,平日,,10,http://care-plaza.jp/,,,,
12025,151480035,北海道,函館市,訪問リハビリテーション桔梗,ホウモンリハビリテーション　キキョウ,訪問リハビリテーション,函館市桔梗町５５７番地介護老人保健施設ジョイウェルス桔梗,介護老人保健施設ジョイウェルス桔梗,41.860445800000000,140.753513400000000,0138-46-8881,0138-46-8880,9440005000257,医療法人　聖仁会,151480035,平日,,9,http://www.seijinkai-mori.jp/,,,,
12025,111414157,北海道,函館市,訪問リハビリテーション稜北,ホウモンリハビリテーションリョウホク,訪問リハビリテーション,北海道函館市中道2丁目51-1,,41.812290000000000,140.762300600000000,0138-54-3161,0138-32-4330,7440005000275,医療法人道南勤労者医療協会,111414157,平日.土曜日,,125,https://ryohoku-h.hakodate.jp/honbu/,,,,
12025,01B1400014,北海道,函館市,訪問リハビリテーション絆,ホウモンリハビリテーションキズナ,訪問リハビリテーション,函館市桔梗1丁目14番1号,,41.830878400000000,140.727960400000000,0138-34-7707,0138-34-7708,3440005000238,医療法人社団向仁会,01B1400014,平日,,0,https://kojinkai1968.com/,,,,
12025,111418752,北海道,函館市,ベーネ函館リハビリ支援センター,ベーネハコダテリハビリシエンセンター,訪問リハビリテーション,北海道函館市石川町464番地1,,41.834581334243900,140.743699562041000,0138-34-3358,0138-47-5872,,ベーネ函館クリニック,111418752,平日.祝日,,,,,,,
12025,151480043,北海道,函館市,介護老人保健施設ケンゆのかわ（訪問リハビリテーション事業所）,カイゴロウジンホケンシセツケンユノカワ（ホウモンリハビリテーションジギョウショ）,訪問リハビリテーション,北海道函館市湯川町3丁目29番15号,,41.783592000000000,140.791138500000000,0138-59-1211,0138-59-3990,,社会福祉法人函館厚生院,151480043,平日.祝日,12月30日から1月3日,,https://ken-yuno.koseiin.or.jp/,,,,
12033,112013719,北海道,小樽市,医療法人社団　島田脳神経外科,イリョウホウジンシャダン　シマダノウシンケイゲカ,訪問リハビリテーション,北海道小樽市錦町1番2号,,43.205540080417600,140.997564700832000,0134-22-4310,0134-22-4324,,医療法人たんぽぽ会　島田脳神経外科,112013719,平日,お盆休み8月15日（改行）年末年始休業12月30日～1月4日,0,http://www.shimada-noushinkei.com,,,,
12033,112013438,北海道,小樽市,医療法人社団　三ツ山病院,イリョウホウジンシャダン　ミツヤマビョウイン,訪問リハビリテーション,北海道小樽市稲穂1丁目9番2号,,43.194047600000000,140.997192200000000,0134-23-1289,0134-24-0293,5430005007744,医療法人社団三ツ山病院,112013438,平日,,0,http://www.mitsuyama-hp.com/,,,,
12033,112014816,北海道,小樽市,医療法人社団　青優会　南小樽病院　訪問リハビリテーション,イリョウホウジンシャダン　セイユウカイ　ミナミオタルビョウイン　ホウモンリハビリテーション,訪問リハビリテーション,小樽市潮見台1丁目5番3号,,43.179252100000000,141.013102800000000,0134-21-2333,0134-21-2600,6430005008304,医療法人社団　青優会　南小樽病院,112014816,平日,なし,5,http://www.minamiotaru-hospital.com/,,,,
12033,152080024,北海道,小樽市,老人保健施設マイトリーおたる,ロウジンホケンシセツマイトリーオタル,訪問リハビリテーション,北海道小樽市奥沢1丁目2-2,,43.182915300000000,141.005788800000000,0134-21-2555,0134-21-2533,,医療法人双葉会,152080024,平日.土曜日,,,,,,,
12041,112918958,北海道,旭川市,忠和クリニック,チュウワクリニック,訪問リハビリテーション,北海道旭川市忠和5条6丁目17番地8,,43.773028100000000,142.320935100000000,0166-69-2500,0166-63-2252,8450005001783,医療法人社団元気会,112918958,平日.土曜日,,0,https://www.chuwa-clinic.com/,,,,
12041,112917059,北海道,旭川市,医療法人フクダ　訪問リハビリテーションフクダ,イリョウホウジンフクダ　ホウモンリハビリテーションフクダ,訪問リハビリテーション,北海道旭川市末広5条7丁目1番1号,,43.815359300000000,142.382450700000000,0166-57-8810,0166-57-9112,9450005000553,医療法人フクダ,112917059,平日.土曜日,,0,http://www.fukuda-clinic.info/,,,,
12041,152980074,北海道,旭川市,介護老人保健施設　フェニックス　訪問リハビリテーション,カイゴロウジンホケンセツ　フェニックス　ホウモンリハビリテーション,訪問リハビリテーション,北海道旭川市豊岡13条1丁目1番11号,,43.771067000000000,142.390455800000000,0166-34-8181,0166-34-8338,6450005000358,医療法人　歓生会,152980074,平日.土曜日,10月から実際に訪問開始,,http://www.328181.com,,,,
12041,172907446,北海道,旭川市,旭川リハビリテーション病院　訪問リハビリ,アサヒカワリハビリテーションビョウイン　ホウモンリハビリ,訪問リハビリテーション,北海道旭川市緑が丘東1条1丁目1番1号,,35.728009700000000,140.074614900000000,0166-65-0101,0166-65-1211,,医療法人社団shindo,172907446,平日,,,http://www.reha.or.jp,,,,
12084,115011538,北海道,北見市,さこう・リハビリクリニック訪問リハビリテーション事業所,サコウ・リハビリクリニックホウモンリハビリテーションジギョウショ,訪問リハビリテーション,北見市北５条西４丁目７番地１,,43.804136800000000,143.890437500000000,0157-23-3709,0157-22-7538,1460305000160,医療法人ケイ・アイ,115011538,平日,-,0,http://www.okhotsk-kai.com/sakou/index.html,,,,
12068,114113491,北海道,釧路市,医療法人扶恵会　釧路中央病院,イリョウホウジンフケイカイ　クシロチュウオウビョウイン,訪問リハビリテーション,北海道釧路市幸町9-3,,42.985278147025400,144.377787398297000,0154-31-2111,0154-22-0367,3460005000426,医療法人扶恵会,114113491,平日,,,http://www.kch.or.jp/,,,,
12076,154680052,北海道,帯広市,介護老人保健施設ヴィラかいせい,カイゴロウジンホケンシセツウ‶ィラカイセイ,訪問リハビリテーション,北海道帯広市西22条南2丁目2番地10,,42.919433600000000,143.132074600000000,0155-37-7600,0155-37-7602,8460105000362,社会医療法人　博愛会,154680052,平日,,,http://www.villa-kaisei.org/,,,,
12076,154680037,北海道,帯広市,訪問リハビリテーションアフタービート,ホウモンリハビリテーションアフタービート,訪問リハビリテーション,北海道帯広市西１７条南３丁目２４番２４号ケアステーションアンダンテ内,ケアステーションアンダンテ内,42.917965000000000,143.168967000000000,0155‐58‐6500,0155‐58‐6501,1460105001549,社会福祉法人　光寿会,154680037,平日,,0,,,,,
12076,154680029,北海道,帯広市,十勝勤医協老人保健施設ケアセンター白樺,トカチキンイキョウロウジンホケンシセツケアセンターシラカバ,訪問リハビリテーション,帯広市白樺１６条西２丁目,,42.918109318409200,143.174058512442000,0155-41-1165,0155-41-1161,,医療法人十勝勤労者医療協会,154680029,平日,,0,http://tokachi-kin-ikyo.or.jp/carecenter/,,,,
12092,175900190,北海道,夕張市,介護老人保健施設夕張,カイゴロウジンホケンシセツユウバリ,訪問リハビリテーション,北海道夕張市社交20番地,,43.056734300000000,141.973896100000000,0125-25-4339,0123-52-2617,2430005001997,医療法人社団豊生会,175900190,平日,訪問リハビリテーション実施日は月曜日の午後、水曜日の午後、木曜日の午後となります,0,http://www.houseikai.or.jp,,,,
12122,156480014,北海道,留萌市,介護老人保健施設サンライズ留萌,カイゴロウジンホケンシセツサンライズルモイ,訪問リハビリテーション,北海道留萌市東雲町2丁目,,43.933211004015700,141.677549371424000,0164-43-1195,0164-43-1184,,医療法人優仁会,156480014,平日,,,,,,,
12173,151080033,北海道,江別市,介護老人保健施設はるにれ,カイゴロウジンホケンシセツハルニレ,訪問リハビリテーション,北海道江別市大麻北町607番地2,,43.089153100000000,141.499306700000000,011-386-0550,011-386-0367,,医療法人はるにれ,151080033,平日.祝日,,0,http://www.irryo-harunire.or.jp/,,,,
12173,151080074,北海道,江別市,葵の園・江別訪問リハビリテーション,アオイノソノ・エベツホウモンリハビリテーション,訪問リハビリテーション,北海道江別市大麻南樹町１－１,,43.082389900000000,141.502642900000000,011-387-6655,011-387-6656,,社会福祉法人葵新生会,151080074,平日,,0,http://www.aoikai.jp/,,,,
12173,111013561,北海道,江別市,医療法人社団藤花会　江別谷藤病院,イリョウホウジンシャダントウカカイ　エベツタニフジビョウイン,訪問リハビリテーション,北海道江別市幸町22番1,,43.100863379385500,141.535367584843000,011-382-5111,011-382-5113,7430005005861,医療法人社団藤花会　江別谷藤病院,111013561,平日,,,,,,,
12203,113211312,北海道,士別市,士別市立病院,シベツシリツビョウイン,訪問リハビリテーション,北海道士別市東11条5丁目3029番地1士別市立病院,士別市立病院,44.178684800000000,142.407504600000000,0165-23-2166,0165-22-1827,,士別市立病院,113211312,平日,,,https://www.shibetsu-hp.jp/,,,,
12246,151180015,北海道,千歳市,介護老人保健施設　クリアコート千歳,カイゴロウジンホケンシセツ　クリアコートチトセ,訪問リハビリテーション,北海道千歳市桂木1丁目5番7号介護老人保健施設クリアコート千歳,介護老人保健施設クリアコート千歳,42.819707472831700,141.624007909338000,0123-27-3232,0123-27-3207,8430005005877,医療法人資生会,151180015,平日,,0,http://www.siseikai.or.jp,,,,
12319,151280021,北海道,恵庭市,医療法人北晨会　介護老人保健施設　恵み野ケアサポート,イリョウホウジンホクシンカイカイゴロウジンホケンシセツメグミノケアサポート,訪問リハビリテーション,恵庭市恵み野西２丁目３番地４,,42.899954300000000,141.577217700000000,0123-37-5060,0123-37-5066,,医療法人　北晨会,151280021,平日.土曜日,-,,http://www.megumino.or.jp/caresupport/cs_top.html,,,,
15849,113710123,北海道,洞爺湖町,社会福祉法人北海道社会事業協会洞爺病院,シャカイフクシホウジンホッカイドウシャカイジギョウキョウカイトウヤビョウイン,訪問リハビリテーション,北海道虻田郡洞爺湖町高砂町125番地46,,42.550188900000000,140.773558500000000,0142-76-1011,0142-76-1146,2430005000677,社会福祉法人北海道社会事業協会,113710123,平日.土曜日,-,0,http://toya-hospital.jp/,,,,
13340,111513487,北海道,木古内町,木古内町国民健康保険病院,キコナイチョウコクミンケンコウホケンビョウイン,訪問リハビリテーション,北海道上磯郡木古内町字本町710,,41.674180054274500,140.436339528975000,01392-2-2079,01392-2-6025,,木古内町,111513487,平日,,0,http://kikonai-hospital.com/,,,,
13463,151580032,北海道,八雲町,介護老人保健施設コミュニティホーム八雲,カイゴロウジンホケンシセツコミュニティホームヤクモ,訪問リハビリテーション,北海道二海郡八雲町栄町3番地1,,42.256220700000000,140.258662300000000,0137-65-2000,0137-63-2085,5430005000583,社会福祉法人渓仁会,151580032,平日,,0,http://www.keijinkai.com/,,,,
13994,112210943,北海道,京極町,ひまわりクリニックきょうごく,ヒマワリクリニックキョウゴク,訪問リハビリテーション,北海道虻田郡京極町字京極３１６番地,,42.860107600000000,140.886265200000000,0136-42-2161,0136-42-3359,,京極町,112210943,平日,,0,http://www.kyogoku-clinic.com,,,,
14028,112310792,北海道,岩内町,訪問リハビリテーション事業所,ホウモンリハビリテーションジギョウショ,訪問リハビリテーション,北海道岩内郡岩内町字高台209番2,,42.978624200000000,140.517524800000000,0135-62-1021,0135-62-3918,2430005000677,社会福祉法人北海道社会事業協会,112310792,平日.土曜日,なし,0,,,,,
14231,175809565,北海道,南幌町,国民健康保健町立南幌病院　訪問リハビリテーション事業所,コクミンケンコウホケンチョウリツナンポロビョウイン　ホウモンリハビリテーションジギョウショ,訪問リハビリテーション,北海道空知郡南幌町元町２丁目２番１号国民健康保健町立南幌病院,国民健康保健町立南幌病院,43.069514500000000,141.652016800000000,011-378-2111,011-378-2585,,南幌町,175809565,平日,,,,,,,
14231,155880024,北海道,南幌町,医療法人やわらぎ訪問リハビリステーションRe・ハッスル,イリョウホウジンヤワラギ　ホウモンリハビリステーション　リ・ハッスル,訪問リハビリテーション,北海道空知郡南幌町栄町１丁目１番２０号医療法人やわらぎ介護老人保健施設ゆう,医療法人やわらぎ介護老人保健施設ゆう,43.064279500000000,141.653607600000000,011-378-0091,011-378-0986,9430005006908,医療法人やわらぎ,155880024,平日.祝日,,,http://yawaragi-info.or.jp/,,,,
14303,176100345,北海道,月形町,介護老人保健施設月形緑苑　訪問リハビリテーション,カイゴロウジンホケンシセツツキガタリョクエン　ホウモンリハビリテーション,訪問リハビリテーション,北海道樺戸郡月形町81番72,,43.341475200000000,141.682205700000000,0126-53-2222,0126-53-2389,,医療法人讃生会,176100345,平日.祝日,なし,,https://sanseikai-med.jp,,,,
15784,173602798,北海道,白老町,医療法人社団生田医院訪問リハビリテーション事業所,イリョウホウジンシャダンイクタイインホウモンリハビリテーションジギョウショ,訪問リハビリテーション,北海道白老郡白老町字萩野73番地,,42.516276600000000,141.301508800000000,0144-83-4126,0144‐83‐2212,,医療法人社団生田医院,173602798,平日,,0,,,,,
16314,114712888,北海道,音更町,医療法人徳洲会　帯広徳洲会病院　訪問リハビリテーション,イリョウホウジントクシュウカイ　オビヒロトクシュウカイビョウイン　ホウモンリハビリテーション,訪問リハビリテーション,河東郡音更町木野西通14丁目2番地１,,42.963330800000000,143.203891700000000,0155-32-3030,0255-32-3522,,医療法人　徳洲会,114712888,平日.祝日,,,http://www.tokushukai.jp/,,,,
16314,174701052,北海道,音更町,医療法人徳洲会　帯広徳洲会病院　訪問リハビリテーション,イリョウホウジントクシュウカイ　オビヒロトクシュウカイビョウイン　ホウモンリハビリテーション,訪問リハビリテーション,河東郡音更町木野西通14丁目2番地１,,42.963325200000000,143.203908400000000,0155-32-3030,0155-32-3522,,医療法人　徳洲会,174701052,平日.祝日,,0,http://www.obitoku.com,,,,
16314,154780068,北海道,音更町,社会福祉法人手稲ロータス会　あんじゅ音更　訪問リハビリテーション事業所,シャカイフクシホウジンテイネロータスカイアンジュオトフケホウモンリハビリテーションジギョウショ,訪問リハビリテーション,北海道河東郡音更町中鈴蘭元町２番地９,,42.955511500000000,143.190677100000000,0155-30-8211,0155-30-8885,7430005000581,社会福祉法人手稲ロータス会,154780068,平日.祝日,,0,http://www.teinelotuskai.com/anju.otofuke/index.php,,,,
16390,114713019,北海道,更別村,更別村国民健康保険診療所,サラベツムラコクミンケンコウホケンシンリョウショ,訪問リハビリテーション,北海道河西郡更別村字更別190番地１,,42.646365330740000,143.193180722052000,0155-52-2301,0155-53-2100,,更別村,114713019,平日,,,http://www.sarabetsu.jp/,,,,
16420,114713415,北海道,広尾町,広尾町国民健康保険病院,ヒロオチョウコクミンケンコウホケンビョウイン,訪問リハビリテーション,北海道広尾郡広尾町公園通南４丁目１番地１３,,42.299018100000000,143.306665600000000,01558-2-3111,01558-2-2107,8460105002169,地方独立行政法人広尾町国民健康保険病院,114713415,平日,,0,https://hiroo-hospital.or.jp/,,,,
16438,154780050,北海道,幕別町,社会医療法人博愛会　介護老人保健施設あかしや,シャカイイリョウホウジンハクアイカイ　カイゴロウジンホケンシセツアカシヤ,訪問リハビリテーション,北海道中川郡幕別町札内あかしや町42番地10,,42.908325800000000,143.248795200000000,0155-55-4165,0155-55-4166,8460105000362,社会医療法人博愛会,154780050,平日,土曜日、日曜日、国民の祝日、及び12月30日～1月3日はお休みとなります。,,http://www.roken-akashiya.org,,,,
16462,154780043,北海道,本別町,アメニティ本別訪問リハビリテーション,アメニティホンベツホウモンリハビリテーション,訪問リハビリテーション,中川郡本別町西美里別6-18,,43.121852700000000,143.590530900000000,0156-22-9311,0156-22-9322,4460105000358,医療法人社団　刀圭会,154780043,平日,ご自宅の場所によっては上記時間内での提供が難しくなります。,,http://toukeikai.or.jp/,,,,
16926,114210834,北海道,中標津町,町立中標津病院　訪問リハビリテーションセンター,チョウリツナカシベツビョウイン　ホウモンリハビリテーションセンター,訪問リハビリテーション,北海道標津郡中標津町西10条南9丁目1-1,,43.536531695527200,144.972198343655000,0153-72-8200,0153-73-5398,,中標津町,114210834,平日,-,0,,,,,
12025,111413001,北海道,函館市,社会医療法人仁生会　訪問リハビリテーション西堀,シャカイイリョウホウジンジンセイカイ　ホウモンリハビリテーションニシボリ,訪問リハビリテーション,北海道函館市中道2丁目6番11号,,41.805915700000000,140.758401000000000,0138-52-3003,0138-52-3001,4440005000253,社会医療法人仁生会,111413001,平日,,0,http://www.nishibori-hosp.or.jp/,,,,
12025,111417655,北海道,函館市,北海道社会事業協会函館病院,ホッカイドウシャカイジギョウキョウカイハコダテビョウイン,訪問リハビリテーション,北海道函館市駒場町４番６号,,41.784460700000000,140.770816900000000,0138-53-5511,0138-51-8421,2430005000677,社会福祉法人北海道社会事業協会,111417655,平日,,0,http://www.hakodatekyokaihp.com/,,,,
12025,111417960,北海道,函館市,訪問リハビリテーション亀田,ホウモンリハビリテーションカメダ,訪問リハビリテーション,北海道函館市昭和1丁目23番11号,,41.818034800000000,140.744604100000000,0138-40-1510,0138-40-1511,,医療法人亀田病院,111417960,平日,,,http://hakodate-kameda-hp.com,,,,
12025,111417267,北海道,函館市,指定訪問リハビリテーション事業所こんクリニック松濤,シテイホウモンリハビリテーションジギョウショコンクリニックショウトウ,訪問リハビリテーション,北海道函館市松風町18番17号,,41.773004100000000,140.732046100000000,0138-27-0123,0138-27-0066,3440005000279,医療法人大庚会,111417267,平日.土曜日,なし,0,http://www.kon-jp.com/,,,,
12025,111418109,北海道,函館市,医療法人鴻仁会深瀬医院,イリョウホウジンコウジンカイフカセイイン,訪問リハビリテーション,北海道函館市松川町30番地12号,,41.786350300000000,140.737070200000000,0138-41-1221,0138-41-1245,1440005000231,医療法人鴻仁会深瀬医院,111418109,平日.土曜日.祝日,祝日は通常営業,30,http://www.fukase.or.jp,,,,
12025,111416533,北海道,函館市,訪問リハビリテーション事業所こんクリニック時任,ホウモンリハビリテーションジギョウショコンクリニックトキトウ,訪問リハビリテーション,函館市時任町35番24号,,41.783753900000000,140.757338300000000,0138-33-1233,0138-33-3356,3440005000279,医療法人大庚会,111416533,平日.土曜日,なし,15,http://www.kon-jp.com/,,,,
12025,111418307,北海道,函館市,訪問リハビリテーションおおむら,ホウモンリハビリテーションオオムラ,訪問リハビリテーション,北海道函館市石川125番地1函館おおむら整形外科病院1F,函館おおむら整形外科病院1F,41.832739900000000,140.745881400000000,0138-47-3232,0138-47-1333,,医療法人社団健和会,111418307,平日.土曜日,留意事項なし,0,http://www.ohmura.or.jp,,,,
12025,111418059,北海道,函館市,ひでしま内科クリニック訪問リハビリテーション,ヒデシマナイカクリニックホウモンリハビリテーション,訪問リハビリテーション,北海道函館市北浜町2-2,,41.796055400000000,140.729228800000000,0138-40-1155,0138-40-3770,6440005002248,医療法人社団秀道会,111418059,平日.土曜日.祝日,担当セラピストにより定休日が異なります。（改行）詳細についてはお問い合わせください。,70,http://hidesima.jp/,,,,
12025,151480019,北海道,函館市,訪問リハビリテーション　グランドサン亀田,ホウモンリハビリテーション　グランドサンカメダ,訪問リハビリテーション,函館市石川町191番地4介護老人保健施設グランドサン亀田　内,介護老人保健施設グランドサン亀田　内,41.835947940644700,140.743178267598000,0138-46-3151,0138-46-9139,,医療法人亀田病院,151480019,平日,土･日曜日、祝日、年末年始（12月30日～1月4日）,0,http://www.hakodate-kameda-hp.com/,,,,
12025,111410346,北海道,函館市,訪問リハビリステーション　ひより坂,ホウモンリハビリステーション　ヒヨリザカ,訪問リハビリテーション,北海道函館市元町33番19号社会医療法人高橋病院,社会医療法人高橋病院,41.765926700000000,140.711506300000000,0138-27-5515,0138-27-5516,8440005000266,社会医療法人高橋病院,111410346,平日.土曜日,,0,http://takahashi-group.jp/,,,,
12033,112014758,北海道,小樽市,医療法人航和会　脳神経外科おたる港南クリニック,イリョウホウジンコウワカイ　ノウシンケイゲカオタルコウナンクリニック,訪問リハビリテーション,小樽市真栄１丁目６番１号,,43.180096400000000,141.007175500000000,0134-31-5566,0134-21-3232,,医療法人　航和会,112014758,平日.土曜日,-,0,http://www.otarukounan.com/,,,,
12033,112013362,北海道,小樽市,札樽病院,サッソンビョウイン,訪問リハビリテーション,小樽市銭函3丁目298番地,,43.136695400000000,141.174728300000000,0134-62-5867,0134-62-5867,3430005007738,医療法人ひまわり会札樽病院,112013362,平日,なし,0,http://www.sasson-hospital.jp/,,,,
12033,112014899,北海道,小樽市,医療法人社団北匠会　小樽中央病院,イリョウホウジンシャダンホクショウカイ　オタルチュウオウビョウイン,訪問リハビリテーション,北海道小樽市入船2丁目2番18号,,43.186550600000000,140.999861700000000,0134-21-2222,0134-25-4111,1430005004951,医療法人社団北匠会,112014899,平日,,,,,,,
12033,112014832,北海道,小樽市,医療法人北光会　朝里中央病院,イリョウホウジンホッコウカイ　アサリチュウオウビョウイン,訪問リハビリテーション,北海道小樽市新光1-21-5,,43.173509500000000,141.055066700000000,0134-54-6543,0134-52-3951,6430005007751,医療法人北光会,112014832,平日,,0,www.hkknet.or.jp,,,,
12033,112014576,北海道,小樽市,札樽・すがた医院,サッソン・スガタイイン,訪問リハビリテーション,小樽市緑2丁目29番3号,,43.188028600000000,140.988548900000000,0134-23-8266,0134-23-8267,,一視同仁会　札樽・すがた医院,112014576,平日.土曜日,,55,http://www.i-sugata.jp/,,,,
12033,152080016,北海道,小樽市,医療法人勉仁会　介護老人保健施設ラポール東小樽　訪問リハビリテーション,イリョウホウジンベンジンカイ　カイゴロウジンホケンシセツラポールヒガシオタル　ホウモンリハビリテーション,訪問リハビリテーション,小樽市新光２丁目２９番２号,,43.168307300000000,141.052299900000000,0134-52-3000,0134-52-0545,3430005001518,医療法人勉仁会,152080016,平日,事前に空きがあるかご確認下さい。,0,http://www.nakagaki-hp.or.jp/,,,,
12041,112914858,北海道,旭川市,医療法人社団旭豊会　旭川三愛病院　訪問リハビリテーション,イリョウホウジンシャダンキョクホウカイ　アサヒカワサンアイギョウイン　ホウモンリハビリテーション,訪問リハビリテーション,北海道旭川市永山4条6丁目3番24号,,43.792246259229400,142.408969634254000,0166-47-6666,0166-47-6700,,医療法人社団旭豊会,112914858,平日,相談により柔軟に対応させていただきます。,0,http://kyokuhoukai.or.jp/,,,,
12041,152980058,北海道,旭川市,さくら館訪問リハビリテーション,サクラカンホウモンリハビリテーション,訪問リハビリテーション,旭川市4条西4丁目2番1号,,43.773731700000000,142.345773600000000,0166-27-0200,0166-27-0225,,医療法人社団慶友会,152980058,平日.祝日,,0,http://www.keiyukai-group.com/sakurakan/,,,,
12041,112916242,北海道,旭川市,訪問リハビリテーションいぶき,ホウモンリハビリテーションイブキ,訪問リハビリテーション,旭川市神居２条１８丁目１６番１６号,,43.750374248624300,142.341546824468000,0166-63-8823,0166-63-8812,2450005000551,医療法人社団萌生会,112916242,平日.土曜日,なし,0,https//sunvillage-clinic.com/,,,,
12041,152980017,北海道,旭川市,旭川老人保健施設ふれあい,アサヒカワロウジンホケンシセツフレアイ,訪問リハビリテーション,旭川市錦町18丁目2150番地,,43.791690300000000,142.332359800000000,0166-51-1818,0166-51-1579,8450005000372,医療法人　恵心会,152980017,平日,,0,http://www.keishinkai.jp.net/.index.html,,,,
12041,112915681,北海道,旭川市,吉田病院　訪問リハビリテーション事業所,ヨシダビョウイン　ホウモンリハビリテーションジギョウショ,訪問リハビリテーション,北海道旭川市4条4丁目1番2号,,43.773023400000000,142.345009800000000,0166-25-1115,0166-25-4650,,医療法人社団慶友会　吉田病院,112915681,平日,土曜、日曜、祝祭日、年末年始(12/30～1/3)、その他法人で定める休日は提供していない。,0,https://www.keiyukai-group.com/yoshi-hp/,,,,
12041,112917497,北海道,旭川市,森山メモリアル病院指定訪問リハビリテーション事業所,モリヤマメモリアルビョウインシテイホウモンリハビリテーションジギョウショ,訪問リハビリテーション,北海道旭川市旭町2条1丁目31番地,,43.781553899662200,142.361004854353000,0166-54-8688,0166-46-7181,,社会医療法人元生会,112917497,平日.土曜日,なし,0,http://www.moriyama.or.jp/,,,,
12041,112919212,北海道,旭川市,道北勤医協　一条通病院,ドウホクキンイキョウ　イチジョウドオリビョウイン,訪問リハビリテーション,北海道旭川市東光1条1丁目1番17号,,43.756246100000000,142.387750800000000,0166-34-2111,0166-33-2882,4450005000509,社会医療法人道北勤労者医療協会,112919212,平日.土曜日,日曜日、祝日、年末年始（12/30～1/3)休日,0,http://www.dohoku-kinikyo.or.jp,,,,
12041,112917174,北海道,旭川市,旭川高砂台病院指定訪問リハビリテーション事業所,アサヒカワタカサゴダイビョウインシテイホウモンリハビリテーションジギョウショ,訪問リハビリテーション,北海道旭川市高砂台1丁目1-22,,43.769675600000000,142.311851900000000,0166-61-5700,0166-61-5089,3450005000352,医療法人社団恩和会,112917174,平日,,0,http://takasagodai.com/,,,,
12041,152980025,北海道,旭川市,老人保健施設サニーヒル,ロウジンホケンシセツサニーヒル,訪問リハビリテーション,北海道旭川市末広８条６丁目５３０７番地,,43.819778500000000,142.373381300000000,0166-51-1127,0166-46-8010,1450005000222,社会福祉法人旭川福祉事業会,152980025,平日,,,https://www.a-fukushi.or.jp/,,,,
12041,152980108,北海道,旭川市,介護老人保健施設ことぶき　訪問リハビリテーション,カイゴロウジンホケンシセツコトブキ　ホウモンリハビリテーション,訪問リハビリテーション,旭川市東旭川町上兵村35番地5,,43.780085500000000,142.441908600000000,0166-36-7667,0166-36-7320,7450005000316,医療法人社団圭泉会,152980108,平日,,0,http://www.keisennkai.or.jp,,,,
12041,112917885,北海道,旭川市,医療法人社団杏仁会　大雪病院,イリョウホウジンシャダンキョウジンカイ　タイセツビョウイン,訪問リハビリテーション,北海道旭川市永山３条７丁目１番５号大雪病院,大雪病院,43.794082100000000,142.408818600000000,0166-48-6661,0166-48-6112,,医療法人社団　杏仁会,112917885,平日.土曜日,訪問リハビリテーションを利用するにあたり、当院の診察受診が必要,0,http://kyoujinkai.gr.jp/,,,,
12084,115011934,北海道,北見市,医療法人ケイ・アイ　オホーツク海病院　訪問リハビリテーション事業所,イリョウホウジンケイ・アイ　オホーツクカイビョウイン　ホウモンリハビリテーションジギョウショ,訪問リハビリテーション,北見市端野町2区793番地1,,43.863898200000000,143.928217400000000,0157-67-6000,0157-67-6066,,医療法人ケイ・アイ,115011934,平日,-,0,http://www.okhtsuk-kai.com/,,,,
12084,115012445,北海道,北見市,医療法人社団久仁会　白川整形外科内科　訪問リハビリテーション事業所,イリョウホウジンシャダンキュウジンカイ　シラカワセイケイゲカナイカ　ホウモンリハビリテーションジギョウショ,訪問リハビリテーション,北海道北見市桜町５丁目１７番１号,,43.810460628854600,143.907130235582000,0157-24-7770,0157-24-8895,4460305000141,医療法人社団　久仁会　白川整形外科内科,115012445,平日.土曜日,定休日は（改行）日曜日・祝祭日、及び１２月３０日～１月３日（改行）お盆休みあり（但し、暦により流動的）,,http://www.sirakawa-c.com/kyuujinkai/index.html,,,,
12084,155080021,北海道,北見市,介護老人保健施設いきいき指定訪問リハビリテーション事業所,カイゴロウジンホケンシセツイキイキシテイホウモンリハビリテーションジギョウショ,訪問リハビリテーション,北見市東相内町172番地80,,43.800755400000000,143.819465200000000,0157-66-1111,0157-36-8181,,医療法人社団久仁会,155080021,平日.土曜日.祝日,なし,0,http://www.sirakawa-c.com/kyuujinkai/index.html,,,,
12084,115012767,北海道,北見市,医療法人社団高翔会　北星記念病院訪問リハビリテーション事業所,イリョウホウジンシャダンコウショウカイ　ホクセイキネンビョウインホウモンリハビリテーションジギョウショ,訪問リハビリテーション,北海道北見市中央三輪2丁目302-1,,43.803177500000000,143.851221500000000,0157-51-1234,0157-51-1230,,医療法人社団高翔会,115012767,平日,土日祝日、年末年始は休業,0,http://www.nouge.gr.jp/,,,,
12084,115012544,北海道,北見市,社会医療法人明生会　道東の森総合病院,シャカイイリョウホウジンメイセイカイ　ドウトウノモリソウゴウビョウイン,訪問リハビリテーション,北海道北見市美山町東2丁目68-9,,43.826968100000000,143.883428800000000,0157-69-0300,0157-69-0380,6460305001427,社会医療法人明生会,115012544,平日,,0,http://www.mei-doutou.jp/,,,,
12084,115012064,北海道,北見市,オホーツク勤医協北見病院,オホーツクキンイキョウキタミビョウイン,訪問リハビリテーション,北海道北見市常盤町5丁目7番地5,,43.793077756386300,143.890074845508000,0157-26-1300,0157-26-4766,9460305000161,医療法人オホーツク勤労者医療協会,115012064,平日,,,http://o-kinikyo.or.jp/,,,,
12068,174100982,北海道,釧路市,釧路訪問リハビリセンター,クシロホウモンリハビリセンター,訪問リハビリテーション,北海道釧路市芦野1丁目27番1号釧路脳神経外科内,釧路脳神経外科内,43.012118900000000,144.401941100000000,0154-37-5401,0154-64-7790,,社会医療法人　孝仁会,174100982,平日,-,100,,,,,
12068,174101899,北海道,釧路市,道東勤医協釧路協⽴病院訪問リハビリテーション,ドウトウキンイキョウクシロキョウリツビョウインホウモンリハビリテーション,訪問リハビリテーション,北海道釧路市治水町3番14号,,43.008471000000000,144.371472400000000,0154-24-6811,0154-24-6824,2460005000393,医療法人道東勤労者医療協会,174101899,平日.土曜日,なし,0,,,,,
12068,174101634,北海道,釧路市,みなみ病院訪問リハビリステーション,ミナミビョウインホウモンリハビリステーション,訪問リハビリテーション,北海道釧路市春採７－９－９,,42.978790299999900,144.418890400000000,0154-46-9188,0154-46-3583,,医療法人太平洋記念みなみ病院,174101634,平日,,0,https://tarkey01.wixsite.com/minamireha,,,,
12076,114614100,北海道,帯広市,医療法人　千樹会　帯広整形外科,イリョウホウジン　センジュカイ　オビヒロセイケイゲカ,訪問リハビリテーション,北海道帯広市東２条南１４丁目１番２号,,42.916309944378400,143.208814179098000,0155-66-7507,0155-66-7595,3460105000425,医療法人　千樹会　帯広整形外科,114614100,平日,,,http://senjyu-ob.com/,,,,
12076,114613375,北海道,帯広市,社会福祉法人真宗協会　帯広光南病院,シャカイフクシホウジンシンシュウキョウカイ　コウナンビョウイン,訪問リハビリテーション,北海道帯広市空港南町303番地7,,42.876822100000000,143.161722400000000,0155-47-4811,0155-47-4812,2460105000459,社会福祉法人真宗協会,114613375,平日,,0,http://www.shinsyukyoukai.jp,,,,
12076,114614134,北海道,帯広市,社会医療法人北斗　十勝リハビリテーションセンター　訪問リハビリテーション　さくら,シャカイイリョウホウジン　ホクト　トカチリハビリテーションセンター　ホウモンリハビリテーション　サクラ,訪問リハビリテーション,北海道帯広市稲田町基線2番地1トカチリハビリテーションセンター,トカチリハビリテーションセンター,42.885039400000000,143.191013700000000,0155-67-6816,0155-67-6818,6460105000364,社会医療法人　北斗,114614134,平日.土曜日,,0,http://www.hokuto7.or.jp/,,,,
12076,114613235,北海道,帯広市,社会医療法人開西病院　訪問リハビリ事業所,シャカイイリョウホウジンカイセイビョウイン　ホウモンリハビリジギョウショ,訪問リハビリテーション,北海道帯広市西23条南2丁目16-27,,42.917697300000000,143.129339700000000,0155-38-7200,0155-37-9110,8460105000362,社会医療法人博愛会,114613235,平日,留意事項は無い。,0,http://www.hakuaikai.org,,,,
12114,175300771,北海道,網走市,社会医療法人明生会　介護老人保健施設あるかさる　訪問リハビリテーションぷりまべら,シャカイイリョウホウジンメイセイカイ　アバシリノオカソウゴウビョウイン　ホウモンリハビリテーションプリマベラ,訪問リハビリテーション,北海道網走市桂町4丁目7番11号,,44.012375345328000,144.270637453972000,0152-61-6163,0152-61-1666,,社会医療法人明生会,175300771,平日,,0,http://www.mei-katsuragaoka.jp/,,,,
12114,115311888,北海道,網走市,医療法人社団朗愛会　訪問リハビリテーションしらかば,イリョウホウジンシャダンロウアイカイ　ホウモンリハビリテーションシラカバ,訪問リハビリテーション,北海道網走市字潮見網走市字潮見157番地5,,43.992329181872700,144.266810968123000,0152-61-0101,0152-61-0066,,医療法人社団朗愛会,115311888,平日.土曜日,訪問日程に関しては個別に対応させていただきます。,0,http://www.rouaikai.jp,,,,
12149,156780017,北海道,稚内市,老人保健施設ら・ぷらーさ,ロウジンホケンシセツラ・プラーサ,訪問リハビリテーション,北海道稚内市栄1丁目24番2号,,45.387131192794100,141.696045596156000,0162-29-4322,0162-29-4323,5430005001508,社会医療法人禎心会,156780017,平日,,55,http://www.teishinkai.jp,,,,
12122,116411430,北海道,留萌市,留萌セントラルクリニック　訪問リハビリテーション,ルモイセントラルクリニック　ホウモンリハビリテーション,訪問リハビリテーション,北海道留萌市栄町1丁目5番26号ノエル1F,ノエル1F,43.942451000000000,141.648506000000000,0164-43-9700,0164-43-9701,,社会医療法人孝仁会,116411430,平日,,,,,,,
12131,113612816,北海道,苫小牧市,苫小牧東病院,トマコマイヒガシビョウイン,訪問リハビリテーション,北海道苫小牧市明野新町５丁目１番３０号,,42.662614500000000,141.636643400000000,0144-55-8811,0144-55-8822,6430005008799,社会医療法人平成醫塾,113612816,平日,土曜、日曜、祝祭日、１２月３１日～１月３日,60,http://www.health-heart-hope.com/,,,,
12131,113613855,北海道,苫小牧市,光洋いきいきクリニック（光洋訪問リハビリテーション）,コウヨウイキイキクリニック（コウヨウホウモンリハビリテーション）,訪問リハビリテーション,苫小牧市光洋町1丁目16-16,,42.622912100000000,141.562604300000000,0144-71-2700,0144-76-2201,9430005011073,医療法人社団生き生き会,113613855,平日,,,http://www.ikiikikai.com,,,,
12131,113611776,北海道,苫小牧市,勤医協苫小牧病院,キンイキョウトマコマイビョウイン,訪問リハビリテーション,北海道苫小牧市見山町1丁目8-23番地,,42.640253100000000,141.570209700000000,0144-72-3151,0144-72-4576,3430005010758,公益社団法人北海道勤労者医療協会,113611776,平日,,,http://kin-ikyotomakomaibyoin.jp/,,,,
12050,153580014,北海道,室蘭市,訪問リハビリテーションエバーグリーン,ホウモンリハビリテーションエバーグリーン,訪問リハビリテーション,北海道室蘭市八丁平1丁目49番地,,42.367395726140200,141.007275804230000,0143-46-4500,0143-46-4501,5430005009856,医療法人社団青雲会,153580014,平日,,0,http://seiunkai.jp/,,,,
12050,113511992,北海道,室蘭市,医療法人室蘭太平洋病院,イリョウホウジンムロランタイヘイヨウビョウイン,訪問リハビリテーション,北海道室蘭市白鳥台５丁目１９番２号,,42.379339666831200,140.942118919713000,0143-59-2211,0143-59-3991,9430005009836,医療法人五紀会,113511992,平日,,0,http://taiheiyo.jp/,,,,
12050,113513550,北海道,室蘭市,医療法人社団医修会　大川原脳神経外科病院,イリョウホウジンシャダンイシュウカイ　オオカワラノウシンケイゲカビョウイン,訪問リハビリテーション,北海道室蘭市寿町1丁目10-1医療法人社団医修会　大川原脳神経外科病院,医療法人社団医修会　大川原脳神経外科病院,42.348135800000000,141.030968700000000,0143-44-1519,0143-44-8006,3430005009841,医療法人社団医修会　大川脳神経外科病院,113513550,平日,,,http://www.isyuukai.jp/ohkawara/,,,,
12050,113512511,北海道,室蘭市,社会医療法人製鉄記念室蘭病院　訪問リハビリテーションセンター,シャカイイリョウホウジンセイテツキネンムロランビョウイン　ホウモンリハビリテーションセンター,訪問リハビリテーション,北海道室蘭市知利別町1丁目45番地,,42.357523700000000,141.016511000000000,0143-41-3075,0143-41-3075,6430005009863,社会医療法人製鉄記念室蘭病院,113512511,平日,,300,http://www.nshp-muroran.or.jp/ikoi/i08/i08-01.html,,,,
12157,116110511,北海道,美唄市,医療法人社団慶北会　花田病院　訪問リハビリテーション事業部,イリョウホウジンシャダンケイホクカイ　ハナダビョウイン　ホウモンリハビリテーションジギョウブ,訪問リハビリテーション,北海道美唄市大通東１条北２丁目２番５号,,43.334239700000000,141.861437000000000,0126-68-8700,0126-62-3193,5430005006696,医療法人社団慶北会　花田病院,116110511,平日,午後12時～午後１時　昼休み,75,http://www.hanada-hp.com/,,,,
12211,113211502,北海道,名寄市,医療法人　臨生会　吉田病院　訪問リハビリテーション,イリョウホウジン　リンセイカイ　ヨシダビョウイン　ホウモンリハビリテーション,訪問リハビリテーション,北海道名寄市西３条南６丁目,,44.349969200000000,142.458879200000000,0165-43-3381,0165-42-3358,3450005002407,医療法人臨生会,113211502,平日,特に無し,0,http://rinseikai.jp/,,,,
12211,113211445,北海道,名寄市,名寄三愛訪問リハビリテーションセンター,ナヨロサンアイホウモンリハビリテーションセンター,訪問リハビリテーション,北海道名寄市西1条北5丁目1番地19,,44.361881700000000,142.462572400000000,01654-3-3911,01654-2-1555,6450005002404,医療法人社団三愛会,113211445,平日,,0,http://sanai-kai.or.jp/,,,,
12203,153280011,北海道,士別市,訪問リハビリテーションボヌゥール士別,ホウモンリハビリテーションボヌゥールシベツ,訪問リハビリテーション,士別市東5条16丁目3129番地143,,44.166576900000000,142.403662200000000,0165-23-3911,0165-23-3950,6450005002404,医療法人社団三愛会,153280011,平日,,0,http://www.sanai-kai.or.jp/bon/index.html,,,,
12246,111111670,北海道,千歳市,千歳豊友会訪問リハビリテーション,チトセホウユウカイホウモンリハビリテーション,訪問リハビリテーション,千歳市富丘1丁目618-6医療法人社団豊友会　千歳豊友会病院,医療法人社団豊友会　千歳豊友会病院,42.835427900000000,141.643898000000000,0123-24-4191,0123-26-2066,9430005005901,医療法人社団豊友会,111111670,平日.土曜日,月曜～土曜にて実施。,82,http://www.foryou-hp.or.jp/,,,,
12246,111111704,北海道,千歳市,訪問リハビリ・ステーション　さんぽ,ホウモンリハビリ・ステーション　サンポ,訪問リハビリテーション,北海道千歳市東雲町1丁目11番地,,42.820531964813100,141.647992087697000,090-7059-0897,0123-27-3169,4430005005872,医療法人同仁会,111111704,平日,,0,http://www.dojinkai-group.com/,,,,
12246,111111506,北海道,千歳市,医療法人社団いずみ会　北星病院,イリョウホウジンシャダンイズミカイ　ホクセイビョウイン,訪問リハビリテーション,北海道千歳市清流5丁目4番2号通所リハビリセンター,通所リハビリセンター,42.842640333139600,141.657842955681000,0123-29-5035,0123-22-7887,7430005005911,医療法人社団いずみ会,111111506,平日.土曜日,土曜日9時～12時30分まで状況により利用可能,0,http://www.hokusei.or.jp/,,,,
12254,117510560,北海道,滝川市,医療法人社団　新緑会　文屋内科消化器科医院,リョウホウジンシャダン　シンリョクカイ　ブンヤナイカショウカキカイイン,訪問リハビリテーション,北海道滝川市空知町2丁目4番10号,,43.548840000000000,141.909293000000000,080-5728-7444,0125-23-5213,,医療法人社団　新緑会　文屋内科消化器科医院,117510560,平日.土曜日,土曜日は基本的に午前のみ。但し振り替えが多い時のみ午後も営業します。,0,,,,,
12254,117510016,北海道,滝川市,滝川市立病院,タキカワシリツビョウイン,訪問リハビリテーション,滝川市大町２－２－３４,,43.558858600000000,141.911750400000000,0125-22-4311,0125-24-6010,,滝川市,117510016,平日,,0,https://www.med.takikawa.hokkaido.jp,,,,
12297,113011100,北海道,富良野市,社会福祉法人　北海道社会事業協会富良野病院,シャカイフクシホウジン　ホッカイドウシャカイジギョウキョウカイフラノビョウイン,訪問リハビリテーション,北海道富良野市住吉町1番30号,,43.347639400000000,142.392610400000000,0167-23-2181,0167-22-4256,2430005000677,社会福祉法人北海道社会事業協会,113011100,平日.土曜日,2020年度については、富良野市・上富良野町・中富良野町の利用者様は8:30～17:00の対応となっております。第1・3・5週の土曜日は午前のみとなります。第2・4週の土曜日は終日休みとさせていただきます。（改行）なお南富良野町は週2回（木・金曜日）、占冠村は月1回の対応となっております。,0,http://www.msknet.ne.jp/~furano-hospital/,,,,
12297,113010938,北海道,富良野市,医療法人社団　ふらの西病院,イリョウホウジンシャダン　フラノニシビョウイン,訪問リハビリテーション,富良野市桂木町２番７７号,,43.350430400000000,142.379178000000000,0167-23-6600,0167-22-3508,,医療法人社団　ふらの西病院,113010938,平日.土曜日,急な病状の変化があった場合、営業時間内であれば訪問に行くことができる場合があります。,0,http://www.furano.ne.jp/f-w-hosp/,,,,
12297,153080015,北海道,富良野市,訪問リハビリステーションふらの,ホウモンリハビリテーションフラノ,訪問リハビリテーション,北海道富良野市住吉町１番２５号,,43.345612400000000,142.393600100000000,0167-23-3933,0167-23-3926,2430005000677,社会福祉法人北海道社会事業協会,153080015,平日.土曜日,,0,https://ssl.hokushakyo.jp/rouken-furano/,,,,
12343,151380011,北海道,北広島市,介護老人保健施設　エスポワール北広島,カイゴロウジンホケンシセツ　エスポワールキタヒロシマ,訪問リハビリテーション,北広島市輪厚704番地16,,42.944213600000000,141.508330100000000,011-376-3911,011-377-5621,4430005004775,医療法人社団翔仁会,151380011,平日,,0,http://www.shojinkai.or.jp,,,,
12319,151280013,北海道,恵庭市,介護老人保健施設アートライフ恵庭,カイゴロウジンホケンシセツアートライフエニワ,訪問リハビリテーション,北海道恵庭市西島松567-1,,42.910200360564400,141.561733042992000,0123-37-1511,0123-37-1516,9430005005876,医療法人　盟侑会,151280013,平日,なし。,0,http://www.artlife-eniwa.jp/,,,,
12319,111211009,北海道,恵庭市,恵庭第一病院訪問リハビリテーション,エニワダイイチビョウインホウモンリハビリテーション,訪問リハビリテーション,北海道恵庭市福住町1丁目6番6,,42.886965600000000,141.579289000000000,0123-34-1155,0123-32-5740,7430005001448,社会医療法人恵和会,111211009,平日,,0,https://eniwa-daiichi.or.jp/,,,,
12319,111210423,北海道,恵庭市,社会医療法人北晨会　恵み野病院訪問リハビリ室,シャカイイリョウホウジンホクシンカイ　メグミノビョウインホウモンリハビリシツ,訪問リハビリテーション,北海道恵庭市恵み野西２丁目３番地５,,42.900195800000000,141.577643700000000,0123-36-7555,0123-33-7359,,医療法人北晨会,111210423,平日.土曜日,,0,,,,,
12335,113711410,北海道,伊達市,社会医療法人慈恵会　聖ヶ丘病院訪問リハビリテーション,シャカイイリョウホウジンジケイカイ　ヒジリガオカビョウインホウモンリハビリテーション,訪問リハビリテーション,北海道伊達市舟岡町２１４－２２,,42.465679700000000,140.882850100000000,0142-21-5010,0142-21-5011,,社会医療法人慈恵会,113711410,平日,,0,http://www.jikeikai.or.jp/facility/p1/p1-5-3.html,,,,
12335,153780028,北海道,伊達市,プライムヘルシータウン湘南　訪問リハビリテーション事業,プライムヘルシータウンショウナン　ホウモンリハビリテーションジギョウ,訪問リハビリテーション,北海道伊達市松ヶ枝町157番地110,,42.476584100000000,140.883904800000000,0142-22-1200,0142-25-1300,,社会福祉法人幸清会,153780028,平日.土曜日.祝日,土曜日に関しては、調整が必要となります。調整がつかない場合は平日での対応をお願い致します。,0,http://www.koseikai-wel.or.jp/,,,,
12301,113512263,北海道,登別市,医療法人登別すずらん病院　訪問リハビリテーション　すずらん,イリョウホウジンノボリベツスズランビョウイン　ホウモンリハビリテーション　スズラン,訪問リハビリテーション,北海道登別市青葉町３４番地９,,42.393740981263700,141.078421898672000,0143-85-1000,0143-85-1729,7430005009838,医療法人　登別すずらん病院,113512263,平日,土曜日、日曜日、祝日および１２月３０日から１月３日は休業,4,http://www.suzuran-hosp.or.jp/nurindustry.html,,,,
12301,113513634,北海道,登別市,地域医療機能推進機構登別病院訪問リハビリテーション,チイキイリョウキノウスイシンキコウノボリベツビョウインホウモンリハビリテーション,訪問リハビリテーション,北海道登別市登別東町3丁目10番地22,,42.456995281833000,141.179705320602000,0143-80-1115,0143-80-2250,6040005003798,地域医療機能推進機構,113513634,平日,,0,http://noboribetsu.jcho.go.jp,,,,
12351,117610063,北海道,石狩市,医療法人喬成会　花川病院,イリョウホウジンキョウセイカイ　ハナカワビョウイン,訪問リハビリテーション,北海道石狩市花川南７条５丁目２番地,,43.140320600000000,141.292921400000000,0133-76-2727,0133-73-5243,8430005004656,医療法人喬成会,117610063,平日,,75,http://kyouseikai.jp,,,,
13030,151080058,北海道,当別町,愛里苑訪問リハビリテーション,アイリエンホウモンリハビリテーション,訪問リハビリテーション,石狩郡当別町ビトエ２２００番地１,,43.186439800000000,141.433547800000000,0133-26-2874,0133-26-2832,5430005001490,医療法人　秀友会,151080058,平日,なし,0,http://shuyukai.or.jp/group/airien.html,,,,
15857,113611081,北海道,安平町,訪問リハビリテーション　追分クリニック,ホウモンリハビリテーション　オイワケクリニック,訪問リハビリテーション,勇払郡安平町追分本町１丁目４３番地,,42.877185100000000,141.812102800000000,0145-25-2531,0145-25-2239,3430005008819,医療法人同和会　追分クリニック,113611081,平日.土曜日,なし,0,http://www.akai-himawari.or.jp,,,,
13374,111513149,北海道,七飯町,ななえ新病院訪問リハビリテーション事業所,ナナエシンビョウインホウモンリハビリテーションジギョウショ,訪問リハビリテーション,北海道亀田郡七飯町本町7丁目657番地5,,41.895295700000000,140.703392200000000,0138-65-2525,0138-65-3769,9440005000348,社会福祉法人函館厚生院,111513149,平日,,,https://www.nanaeshin.com/,,,,
13463,111510707,北海道,八雲町,八雲総合病院指定訪問リハビリテーション事業所,ヤクモソウゴウビョウインシテイホウモンリハビリテーションジギョウショ,訪問リハビリテーション,北海道二海郡八雲町東雲町５０八雲総合病院,八雲総合病院,42.253437300000000,140.278615900000000,0137-63-2185,0137-62-2753,,八雲町,111510707,平日,-,0,http://hosp.town.yakumo.hokkaido.jp/,,,,
13455,151580057,北海道,森町,道南森ロイヤルケアセンター,ドウナンモリロイヤルケアセンター,訪問リハビリテーション,北海道茅部郡森町上台町326-117,,42.103622200000000,140.568169700000000,01374-3-2111,01374-3-2112,1390005005954,医療法人社団明山会,151580057,平日.祝日,,0,http://www.ims.gr.jp/dounanmori-royal/,,,,
13714,111710364,北海道,せたな町,道南ロイヤル病院訪問リハビリテーション,ドウナンロイヤルビョウインホウモンリハビリテーション,訪問リハビリテーション,北海道久遠郡せたな町北檜山区北桧山322-4,,42.414403825702000,139.878141025131000,0137-84-5011,0137-84-6911,4011405000068,医療法人財団明理会,111710364,平日,,,https://www.ims.gr.jp/dounan-royal/,,,,
13927,112110382,北海道,寿都町,寿都町立寿都診療所,スッツチョウリツスッツシンリョウジョ,訪問リハビリテーション,北海道寿都郡寿都町字渡島町72番地2,,42.792445200000000,140.230432700000000,0136-62-2411,0136-62-2940,,寿都町,112110382,平日,,0,http://www.town.suttu.lg.jp/life/detail.php?id=55,,,,
14028,152380028,北海道,岩内町,介護老人保健施設コミュニティホーム岩内,カイゴロウジンホケンシセツコミュニティホームイワナイ,訪問リハビリテーション,北海道岩内郡岩内町字野束69番地の26,,42.966714200000000,140.509876400000000,0135-62-3800,0135-62-3887,,社会福祉法人渓仁会,152380028,平日,,,http://www.keijinkai.com/,,,,
14087,112510979,北海道,余市町,医療法人社団倫仁会小嶋内科,イリョウホウジンシャダンリンジンカイコジマナイカ,訪問リハビリテーション,北海道余市郡余市町黒川町７－１３,,43.186885900000000,140.792056100000000,0135-22-2245,0135-22-2551,,医療法人社団倫仁会小嶋内科,112510979,平日,,2,http://rinjinkai.or.jp/,,,,
14273,115810798,北海道,由仁町,国民健康保険由仁町立診療所,コクミンケンコウホケンユニチョウリツシンリョウジョ,訪問リハビリテーション,北海道夕張郡由仁町馬追１番地の１,,43.011972582554400,141.780386038623000,0123-83-2031,0123-83-2032,,由仁町,115810798,平日,,0,http://yuni-clinic.com/,,,,
14532,153180013,北海道,東神楽町,回生苑訪問リハビリテーション,カイセイエンホウモンリハビリテーション,訪問リハビリテーション,上川郡東神楽町東１線2号13番地介護老人保健施設　回生苑,介護老人保健施設　回生苑,43.718704763010200,142.402255593393000,0166-83-5110,0166-83-5118,,医療法人　回生会,153180013,平日,,,,,,,
14541,113111173,北海道,当麻町,当麻内科ペインクリニック　訪問リハビリ,トウマナイカペインクリニック　ホウモンリハビリ,訪問リハビリテーション,北海道上川郡当麻町4条西3丁目17番21号,,43.828223900000000,142.514506700000000,0166-84-7517,0166-84-7518,,医療法人社団元気クラブ当麻内科ペインクリニック,113111173,平日.土曜日,日曜、祝日、12/31～1/3は定休日（改行）平日は8:00～12:00、13:00～17:00の利用時間となります。,,,,,,
14583,153180021,北海道,東川町,ひだまりの里指定訪問リハビリテーション事業所,ヒダマリノサトシテイホウモンリハビリテーションジギョウショ,訪問リハビリテーション,上川郡東川町西町８丁目２９番１号,,43.700603900000000,142.477247700000000,0166-82-5550,0166-82-5582,1450005000222,社会福祉法人旭川福祉事業会,153180021,平日.祝日,,,https://www.a-fukushi.or.jp/,,,,
14591,153180039,北海道,美瑛町,美瑛町老人保健施設　ほの香,ビエイチョウロウジンホケンシセツ　ホノカ,訪問リハビリテーション,上川郡美瑛町東町3丁目701番3,,43.591401000000000,142.479114900000000,0166-92-1511,0166-92-1303,5450005002025,社会福祉法人美瑛慈光会,153180039,平日.土曜日.日曜日.祝日,,0,http://www.biei-jikoukai.or.jp,,,,
15750,113710826,北海道,壮瞥町,医療法人交雄会　そうべつ温泉病院　訪問リハビリテーション室,イリョウホウジンコウユウカイ　ソウベツオンセンビョウイン　ホウモンリハビリテーションシツ,訪問リハビリテーション,北海道有珠郡壮瞥町字南久保内１４６－１２,,42.575407718757200,140.963630286369000,0142-65-2221,0142-65-2739,4430005009650,医療法人交雄会,113710826,平日,,,http://www.koyukai-g.jp/soh/,,,,
15814,113613608,北海道,厚真町,医療法人社団健厚会あつまクリニック,イリョウホウジンシャダンケンコウカイアツマクリニック,訪問リハビリテーション,北海道勇払郡厚真町京町１５番地,,42.725096954220800,141.878827986508000,0145‐27‐2422,0145‐27‐3711,5430005009154,医療法人社団健厚会あつまクリニック,113613608,平日,,0,https://atsumaclinic.com/,,,,
16071,153880067,北海道,浦河町,介護老人保健施設　浦河緑苑　訪問リハビリテーション,カイゴロウジンホケンシセツ　ウラカワリョクエン　ホウモンリハビリテーション,訪問リハビリテーション,北海道浦河郡浦河町字東栄571番３,,42.195343200000000,142.694920800000000,0146-26-3911,0146-26-3915,,医療法人　讃生会,153880067,平日.祝日,上記時間内に利用者宅までの移動時間を含む。,0,https://www.sanseikai-med.jp/urakawaryokuen/,,,,
16314,154780019,北海道,音更町,介護老人保健施設とかち,カイゴロウジンホケンシセツトカチ,訪問リハビリテーション,北海道河東郡音更町緑陽台南区2番地6,,42.963985966122300,143.198699429758000,0155-30-2300,0155-30-5600,4460105000498,公益財団法人北海道医療団,154780019,平日,特になし,,https://www.zhi.or.jp,,,,
16331,114713373,北海道,上士幌町,社会医療法人北斗　上士幌クリニック,シャカイイリョウホウジンホクト　カミシホロクリニック,訪問リハビリテーション,北海道河東郡上士幌町字上士幌東3線240番73,,43.233051605866500,143.296600481615000,01564-7-7115,01564-7-7105,,社会医療法人　北斗,114713373,平日.土曜日,,0,https://www.hokuto7.or.jp,,,,
16357,114713365,北海道,新得町,社会医療法人北斗　新得クリニック,シャカイイリョウホウジンホクト　シントククリニック,訪問リハビリテーション,北海道上川郡新得町３条南５丁目１,,43.078156109761400,142.838142769312000,0156-69-5151,0156-69-5152,,社会医療法人　北斗,114713365,平日.土曜日,,,http://www.hokuto7.or.jp,,,,
16365,114713381,北海道,清水町,御影診療所,ミカゲシンリョウショ,訪問リハビリテーション,北海道上川郡清水町御影西２条３丁目１３番地,,42.946487600000000,142.935869400000000,0156-63-2320,0156-63-2311,2460105002067,医療法人社団星光会,114713381,平日,,,,,,,
16365,114710270,北海道,清水町,清水赤十字病院,シミズセキジュウジビョウイン,訪問リハビリテーション,北海道上川郡清水町南2条2丁目1番地,,43.012175500000000,142.883009600000000,0156-62-2513,0156-62-4460,,日本赤十字社,114710270,平日,土・日曜日、祝日は営業していません。,0,https://shimizu.jrc.or.jp/,,,,
16411,154780027,北海道,大樹町,訪問リハビリテーションイカロス,ホウモンリハビリテーションイカロス,訪問リハビリテーション,北海道広尾郡大樹町字大樹10番地8,,42.502128000000000,143.267089500000000,155865566,155865567,1460105001549,社会福祉法人光寿会,154780027,平日,祝日に関しては振替等にて対応,,https://www.koujyukai.info/,,,,
16446,114710460,北海道,池田町,十勝いけだ地域医療センター,トカチイケダチイキイリョウセンター,訪問リハビリテーション,北海道中川郡池田町字西２条５丁目２５番地,,42.925858000000000,143.447613800000000,015-572-3181,015-572-3185,,十勝いけだ地域医療センター,114710460,平日,,0,https://jadecom.or.jp/jadecom.tokachi-ikeda/,,,,
16349,154780076,北海道,鹿追町,もみじの里（介護予防）訪問リハビリテーション事業所,モミジノサト（カイゴヨボウ）ホウモンリハビリテーションジギョウショ,訪問リハビリテーション,北海道河東郡鹿追町鹿追北２線８番地３３,,43.095071858309500,142.994632867181000,0156-66-1185,0156-66-1184,2460105001325,社会福祉法人鹿追恵愛会,154780076,平日,,,http://www2.shikaoi-keiaikai.jp/momiji/,,,,
16641,114310220,北海道,標茶町,標茶町立病院,シベチャチョウリツビョウイン,訪問リハビリテーション,北海道川上郡標茶町開運4丁目1番地,,43.300248067517300,144.598202551590000,015-485-2135,015-485-2519,,標茶町,114310220,平日,なし,5,https://shibecha-hospital.jp/,,,,
16624,114311293,北海道,厚岸町,医療法人社団田中医院,イリョウホウジンシャダンタナカイイン,訪問リハビリテーション,北海道厚岸郡厚岸町真栄1丁目82番地,,43.055403300000000,144.842063100000000,0153-52-7165,0153-52-7167,5460005001026,医療法人社団田中医院,114311293,平日.土曜日,,65,,,,,
16624,174300616,北海道,厚岸町,町立厚岸病院,チョウリツアッケシビョウイン,訪問リハビリテーション,北海道厚岸郡厚岸町住の江1丁目１番地,,43.057492000000000,144.847004300000000,0153-52-3145,0153-52-6137,,厚岸町,174300616,平日,,,http://www.akkeshi-town.jp/byoin,,,,
16471,114710437,北海道,足寄町,足寄町国民健康保険病院,アショロチョウコクミンケンコウホケンビョウイン,訪問リハビリテーション,北海道足寄郡足寄町南２条３丁目１番地,,43.242014900000000,143.549127800000000,0156-25-2155,0156-25-2158,,足寄町,114710437,平日,,15,http://www.town.ashoro.hokkaido.jp/kb/,,,,
16659,114311541,北海道,弟子屈町,医療法人共生会　川湯の森病院,イリョウホウジン　トモニイキルカイ　カワユノモリビョウイン,訪問リハビリテーション,北海道川上郡弟子屈町川湯温泉4丁目8番30号,,43.642622743948100,144.438360998148000,015-483-3121,015-483-2763,7460005001107,医療法人共生会　川湯の森病院,114311541,平日.祝日,,60,http://kawayu.tomoni-ikirukai.jp,,,,
16926,174200709,北海道,中標津町,中標津訪問リハビリセンター,ナカシベツホウモンリハビリセンター,訪問リハビリテーション,北海道標津郡中標津町西11条南8丁目4番地1,,43.536830500000000,144.969484100000000,0153-74-0761,0153-74-0762,9460005000420,社会医療法人　孝仁会,174200709,平日,,35,,,,,
16926,174200451,北海道,中標津町,石田病院指定訪問リハビリテーション,イシダビョウインシテイホウモンリハビリテーション,訪問リハビリテーション,標津郡中標津町りんどう町５-６,,43.544270000000000,144.926962100000000,0153-72-9112,0153-72-9151,2462505000006,医療法人樹恵会,174200451,平日,なし,20,http://www.ishida-hp.jp/,,,,
12360,151580040,北海道,北斗市,訪問リハビリテーションやわらぎ,ホウモンリハビリテーションヤワラギ,訪問リハビリテーション,北海道北斗市追分5丁目3-13,,41.829842500000000,140.695911400000000,0138-49-8080,0138-49-8525,,医療法人やわらぎ会,151580040,平日,,,http://www.yawaragikai.com/kamiso/custom6.html,,,,
11029,110710415,北海道,札幌市北区,札幌パーキンソンＭＳ神経内科クリニック,サッポロパーキンソンエムエスシンケイナイカクリニック,訪問リハビリテーション,北海道札幌市北区北７条西５丁目７−６第２７ビッグ札幌北スカイビル１２Ｆ,第２７ビッグ札幌北スカイビル１２Ｆ,43.068945493310100,141.346980208248000,090-2819-1161,011-700-5860,9430005001520,北祐会,110710415,平日,,0,https://www.hokuyukai.clinic/,,,,
11096,170401814,北海道,札幌市手稲区,社会医療法人　延山会　西成病院,シャカイイリョウホウジン　エンザンカイ　ニッセイビョウイン,訪問リハビリテーション,札幌市手稲区曙２条２丁目２番２７号,,43.127184500000000,141.237854600000000,011-681-9321,011-681-9250,5430005001540,社会医療法人　延山会,170401814,平日,なし,0,http://www.nissei-hp.com/,,,,
11011,110611845,北海道,札幌市中央区,医療法人大空　札幌ススキノ病院,イリョウホウジンオオゾラ　サッポロススキノビョウイン,訪問リハビリテーション,北海道札幌市中央区南6条西8丁目5番地,,43.052625000000000,141.346770000000000,011-512-2000,011-512-2001,1430005001478,医療法人大空,110611845,平日,,,http://www.zion-g.jp/susukino/,,,,
11061,110314457,北海道,札幌市南区,定山渓病院訪問リハビリテーション,ジョウザンケイビョウインホウモンリハビリテーション,訪問リハビリテーション,札幌市南区定山渓温泉西３丁目７１,,42.968461500000000,141.164561200000000,011-598-3334,011-598-3335,,医療法人渓仁会,110314457,平日,,220,http://www.keijinkai.com/jyouzankei/,,,,
11061,150180016,北海道,札幌市南区,介護老人保健施設リラコート愛全　訪問リハビリテーション,カイゴロウジンホケンシセツリラコートアイゼンホウモンリハビリテーション,訪問リハビリテーション,札幌市南区川沿13条2丁目4-45,,42.978409300000000,141.334111400000000,011-571-7151,011-572-5657,4430005001434,医療法人　愛全会,150180016,平日,,,ｈｔｔｐ/www.aizenkai.or.jp,,,,
11011,110117785,北海道,札幌市中央区,創成東病院訪問リハビリテーション,ソウセイヒガシビョウインホウモンリハビリテーション,訪問リハビリテーション,北海道札幌市中央区南3条東3丁目13番地,,43.058032600000000,141.361659400000000,011-222-2117,011-222-2204,,医療法人えんどう会,110117785,平日,,0,http://sousei-med.jp,,,,
11037,110219862,北海道,札幌市東区,元町ひまわりクリニック訪問リハビリ,モトマチヒマワリクリニックホウモンリハビリ,訪問リハビリテーション,北海道札幌市北25条東20丁目７番１号元町ケアサポートセンター1F,元町ケアサポートセンター1F,43.096505000000000,141.383636400000000,011-783-5100,011-783-5123,2430005001997,医療法人社団豊生会,110219862,平日,勤務状況によって、お休みや振替について都度、相談させて頂いています。,,https://www.houseikai.or.jp/motomachi/,,,,
11037,110215761,北海道,札幌市東区,社会医療法人社団三草会　クラーク病院,シャカイイリョウホウジンシャダンサンソウカイ　クラークビョウイン,訪問リハビリテーション,北海道札幌市東区本町2条4丁目8－20クラーク病院2階,クラーク病院2階,43.079714200000000,141.389653300000000,011-787-6323,011-780-5202,2430005001799,社会医療法人社団三草会,110215761,平日,,0,,,,,
11070,170402101,北海道,札幌市西区,札幌山の上病院訪問リハステーション,サッポロヤマノウエビョウインホウモンリハステーション,訪問リハビリテーション,北海道札幌市西区山の手6条9丁目1－1,,43.069853000000000,141.286798600000000,011-621-1200,011-621-3577,1430005001494,医療法人札幌山の上病院,170402101,平日.土曜日,現在、土曜日は平日の予備日として、必要に応じてサービスを実施。,0,http://www.yamanoue.ne.jp,,,,
11061,110112489,北海道,札幌市南区,愛全病院,アイゼンビョウイン,訪問リハビリテーション,北海道札幌市南区川沿13条2丁目1-38,,42.979590200000000,141.333863000000000,011-571-5670,011-572-8007,,医療法人　愛全会,110112489,平日,なし,0,http://www.aizenkai.or.jp/,,,,
11061,110513579,北海道,札幌市南区,札幌南病院,サッポロミナミビョウイン,訪問リハビリテーション,北海道札幌市南区石山東7丁目1番28号,,42.954499100000000,141.343543700000000,011-591-1200,011-591-1271,,医療法人大空,110513579,平日,,0,http://www.zion-g.jp/sapporominami/,,,,
11061,110515061,北海道,札幌市南区,医療法人社団もなみ　もなみクリニック,イリョウホウジンシャダンモナミ　モナミクリニック,訪問リハビリテーション,北海道札幌市南区川沿5条3丁目2-1,,42.992549700000000,141.331571100000000,011-578-5775,011-578-5776,1430005012905,医療法人社団もなみ,110515061,平日.土曜日,月・水・金9：00-18：00（改行）火・木9：00-15：00（改行）土9：00-12：00,0,monami-cl.com,,,,
11045,150380012,北海道,札幌市白石区,介護老人保健施設コミュニティホーム白石,カイゴロウジンホケンシセツコミュニティホームシロイシ,訪問リハビリテーション,北海道札幌市白石区本郷通3丁目南1番35号,,43.046270700000000,141.404084100000000,011-864-5321,011-864-9590,5430005000583,社会福祉法人　渓仁会,150380012,平日,,0,http://www.keijinkai.com/ｃ－ｓｈｉｒｏｉｓｈｉ,,,,
11088,110317187,北海道,札幌市厚別区,ファミリークリニックこころ,ファミリークリニックココロ,訪問リハビリテーション,北海道札幌市厚別区もみじ台東4丁目2-7,,43.030183800000000,141.499034100000000,011-897-0868,011-897-0868,3430005001773,医療法人社団秀和会ファミリークリニックこころ,110317187,平日.祝日,,0,https://familyclinic-cocoro.com/,,,,
11088,170513568,北海道,札幌市厚別区,医療法人潤和会　ひばりが丘訪問リハビリステーション,イリョウホウジン　ジュンワカイ,訪問リハビリテーション,北海道札幌市厚別区厚別中央3条2丁目12番1号,,43.035594700000000,141.460755100000000,011-894-7075,011-894-7076,6430005001481,医療法人潤和会,170513568,平日,,,http://www.hibarigaoka-hp.jp,,,,
11088,110511888,北海道,札幌市厚別区,記念塔病院訪問リハビリテーション,キネントウビョウインホウモンリハビリテーション,訪問リハビリテーション,北海道札幌市厚別区厚別東4条3丁目3-6,,43.048178000000000,141.481705000000000,011-898-1521,011-898-2821,9430005004143,社会医療法人交雄会メディカル,110511888,平日,,,http://www.kinentou.or.jp/,,,,
11088,110511383,北海道,札幌市厚別区,医療法人社団翔嶺館　新札幌聖陵ホスピタル,イリョウホウジンシャダンショウレイカン　シンサッポロセイリョウホスピタル,訪問リハビリテーション,北海道札幌市厚別区厚別東4条2丁目1番30号,,43.044764700000000,141.480312600000000,011-898-2151,011-898-2171,,医療法人社団翔嶺館,110511383,平日.土曜日,,,http://www.shoureikan.jp/seiryou/,,,,
11096,110417797,北海道,札幌市手稲区,かわばた訪問リハビリテーション　ライフ,カワバタホウモンリハビリテーション　ライフ,訪問リハビリテーション,北海道札幌市手稲区新発寒4条5丁目13-13,,43.115006000000000,141.270089600000000,011-688-2525,011-688-2526,,医療法人　かわばた内科クリニック,110417797,平日,,,,,,,
11100,110319928,北海道,札幌市清田区,札幌平岡病院訪問リハビリテーション,サッポロヒラオカビョウイン　ホウモンリハビリテーション,訪問リハビリテーション,札幌市清田区平岡２条１丁目１５番２０号,,43.000752200000000,141.447463300000000,011-881-3711,011-881-3918,1430005001503,医療法人　札幌平岡病院,110319928,平日.土曜日,,0,http://www.hiraoka-hospital.com,,,,
11011,110612108,北海道,札幌市中央区,医療法人渓仁会　札幌渓仁会リハビリテーション病院,イリョウホウジンケイジンカイ　サッポロケイジンカイリハビリテーションビョウイン,訪問リハビリテーション,北海道札幌市中央区北１０条西１７丁目３６－１３,,43.070474600000000,141.327597700000000,011-642-4120,011-642-4135,4430005001450,渓仁会,110612108,平日,,,http://www.keijinkai.com/keijinkai-reha/,,,,
11011,170103675,北海道,札幌市中央区,介護老人保健施設けあ・ばんけい訪問（介護予防訪問）リハビリテーション,カイゴロウジンホケンシセツケアバンケイホウモン(カイゴヨボウホウモン)リハビリテーション,訪問リハビリテーション,北海道札幌市中央区盤渓232-7,,43.032649800000000,141.277201300000000,011-615-9623,011-615-2335,5430005002019,社会医療法人社団カレスサッポロ,170103675,平日,,,http://www.carebankei.jp/,,,,
11029,110214947,北海道,札幌市北区,指定訪問リハビリテーション,シテイホウモンリハビリテーション,訪問リハビリテーション,札幌市北区百合が原１１丁目１８６番地,,43.131936900000000,141.367518200000000,011-771-1501,011-771-0865,5430005001788,医療法人社団札幌百合の会病院,110214947,平日.祝日,なし,0,http://www.yurinokai.jp/,,,,
11029,150280139,北海道,札幌市北区,介護老人保健施設サンビオーズ新琴似訪問リハビリテーション,カイゴロウジンホケンシセツサンビオーズシンコトニホウモンリハビリテーション,訪問リハビリテーション,北海道札幌市北区新琴似2条5丁目1-1,,43.106539300000000,141.320868200000000,011-763-9300,011-763-9301,,医療法人晴生会,150280139,平日.祝日,,,https://www.aoikai.jp/symbiose/,,,,
11037,110710365,北海道,札幌市東区,よつば家庭医療クリニック訪問リハビリテーション,ヨツバカテイイリョウクリニックホウモンリハビリテーション,訪問リハビリテーション,札幌市東区北12条東4丁目1番1号カレスプレミアムガーデン,カレスプレミアムガーデン,43.076708100000000,141.358802900000000,011-722-2533,011-722-2233,,社会医療法人社団カレスサッポロ,110710365,平日,土曜・日曜・祝日・12月30日～1月3日はお休み,0,www.yotsubacl.jp/h-reha.html,,,,
11037,150280071,北海道,札幌市東区,ひまわり訪問リハビリ,ヒマワリホウモンリハビリ,訪問リハビリテーション,札幌市東区東苗穂3条1丁目2-18,,43.088185700000000,141.399573700000000,011-784-1121,011-780-2058,2430005001997,医療法人社団　豊生会,150280071,平日,日曜日・祝日,0,http://www.houseikai.or.jp/,,,,
11070,110411121,北海道,札幌市西区,社会医療法人孝仁会　札幌第一病院,シャカイイリョウホウジンコウジンカイ　サッポロダイイチビョウイン,訪問リハビリテーション,札幌市西区二十四軒4条3丁目4番26号,,43.076311700000000,141.307318600000000,011-611-6201,011-643-3790,,社会医療法人孝仁会,110411121,平日,土曜日は電話対応をおこなっている。,3,http://www.sapporo-daiichi.com,,,,
11070,110415379,北海道,札幌市西区,医療法人社団　静和会　静和記念病院,イリョウホウジンシャダン　セイワカイ　セイワキネンビョウイン,訪問リハビリテーション,北海道札幌市西区琴似1条5丁目1番1号,,43.074838800000000,141.304751000000000,011-611-1111,011-631-6271,7430005001811,医療法人社団静和会,110415379,平日.祝日,,0,http://seiwa-mh.jp/,,,,
11070,110415635,北海道,札幌市西区,医療法人社団明日佳　札幌宮の沢脳神経外科病院,イリョウホウジンシャダンアスカ　サッポロミヤノサワノウシンケイゲカビョウイン,訪問リハビリテーション,北海道札幌市西区西町南20丁目1-30,,43.086270300000000,141.275681800000000,011-664-7111,011-664-7649,4430005001509,医療法人社団明日佳　札幌宮の沢脳神経外科病院,110415635,平日,,0,http://www.smn-hp.or.jp/,,,,
11070,150480119,北海道,札幌市西区,平和の杜訪問リハビリテーション,ヘイワノモリホウモンリハビリテーション,訪問リハビリテーション,北海道札幌市西区平和420番地,,43.057747900000000,141.226114900000000,011-668-2020,011-668-2525,6430005012867,社会福祉法人杜の会,150480119,平日.土曜日.日曜日.祝日,,,http://www.morinokai1001.jp/,,,,
11053,110317732,北海道,札幌市豊平区,医療法人社団北樹会病院　つきさっぷ訪問リハビリ,イリョウホウジンシャダンホクジュカイビョウイン　ツキサップホウモンリハビリ,訪問リハビリテーション,札幌市豊平区月寒西5条8丁目4番32号,,43.025816800000000,141.386600600000000,011-858-4511,011-850-5711,3430005001988,医療法人社団　北樹会病院,110317732,平日.土曜日.祝日,必要に応じて、通常以外の時間帯にサービスを実施する場合あり,140,http://www.hokujyukai.jp/,,,,
11061,110318326,北海道,札幌市南区,医療法人社団　札幌藤が丘整形外科医院,イリョウホウジンシャダン　サツポロフィジガオカセイケイゲカイイン,訪問リハビリテーション,北海道札幌市南区藤野２条２丁目1-18,,42.961390922746900,141.308734056483000,011-592-1388,011-592-1315,,札幌藤が丘整形外科医院,110318326,平日,,0,http://www.sfoc.or.jp,,,,
11045,110511862,北海道,札幌市白石区,医療法人資生会　よつばクリニック,イリョウホウジンシセイカイ　ヨツバクリニック,訪問リハビリテーション,北海道札幌市白石区東札幌1条2丁目1-3,,43.049053300000000,141.381311100000000,011-825-1055,011-825-1881,8430005005877,医療法人　資生会,110511862,平日,,0,http://www.siseikai.or.jp/,,,,
11045,110513777,北海道,札幌市白石区,札幌白石記念病院　訪問リハビリテーション,サッポロシロイシキネンビョウイン　ホウモンリハビリテーション,訪問リハビリテーション,北海道札幌市白石区本通8丁目南1-10,,43.044426800000000,141.416427400000000,011-863-5151,011-863-5161,,社会医療法人　医翔会　札幌白石記念病院,110513777,平日,土曜、日曜、祝日（振替は要相談）,0,http://www.ssn.hp.jp/,,,,
11045,150380137,北海道,札幌市白石区,勤医協老人保健施設柏ヶ丘訪問リハビリテーション,キンイキョウロウジンホケンシセツカシワガオカホウモンリハビリテーション,訪問リハビリテーション,札幌市白石区平和通7丁目南５－１,,43.046991000000000,141.417241900000000,011-865-0010,011-865-9538,,公益社団法人北海道勤労者医療協会,150380137,平日,,0,,,,,
11088,110313855,北海道,札幌市厚別区,大谷地病院訪問リハビリテーション,オオヤチビョウインホウモンリハビリテーション,訪問リハビリテーション,北海道札幌市厚別区大谷地東5丁目7番10号,,43.022758800000000,141.458427600000000,011-891-3737,011-891-3868,3430005001476,医療法人重仁会,110313855,平日,,0,http://www.ohyachi-hp.or.jp/,,,,
11088,110317591,北海道,札幌市厚別区,新さっぽろ在宅リハビリテーションセンター,シンサッポロザイタクリハビリテーションセンター,訪問リハビリテーション,北海道札幌市厚別区上野幌1条2丁目1番10号新さっぽろ脳神経外科病院内,新さっぽろ脳神経外科病院内,43.022803300000000,141.469035000000000,011-891-2500,011-891-5100,8430005001488,医療法人　新さっぽろ脳神経外科病院,110317591,平日,,0,http://www.snh.or.jp/,,,,
11088,110510476,北海道,札幌市厚別区,医療法人中山会　新札幌パウロ病院訪問リハビリテーション事業所,イリョウホウジンナカヤマカイ　シンサッポロパウロビョウインホウモンリハビリテーションジギョウショ,訪問リハビリテーション,札幌市厚別区厚別東２条６丁目４番１号,,43.046512200000000,141.489862600000000,011-809-5620,011-809-5630,,医療法人中山会,110510476,平日,現在、土曜日の訪問は実施していない,0,http://www.byo-in.com/facilities/index.html#3,,,,
11088,110511532,北海道,札幌市厚別区,医療法人社団明日佳　桜台明日佳病院,イリョウホウジンシャダンアスカ　サクラダイアスカビョウイン,訪問リハビリテーション,北海道札幌市厚別区厚別西5条5丁目1番1号,,43.054552700000000,141.464433700000000,011-894-8181,011-894-8196,,医療法人社団明日佳,110511532,平日,,0,http://www.asuka-gp.or.jp/sakuradai/,,,,
11096,110412467,北海道,札幌市手稲区,医療法人社団明生会　イムス札幌内科リハビリテーション病院　訪問リハビリテーション,イリョウホウジンシャダンメイセイカイ　イムスサッポロナイカリハビリテーションビョウイン　ホウモンリハビリテーション,訪問リハビリテーション,札幌市手稲区手稲金山１２４番地,,43.122892200000000,141.198519000000000,011-681-2105,011-683-5370,6430005001473,医療法人社団明生会,110412467,平日.土曜日,祝祭日等により、予定された訪問が出来ない場合は、可能な限りあらかじめ日程変更を御相談致します。,0,http://ims-sappororeha.org/,,,,
11096,110414968,北海道,札幌市手稲区,札幌秀友会病院　訪問リハビリテーション,サッポロシュウユウカイビョウイン　ホウモンリハビリテーション,訪問リハビリテーション,北海道札幌市手稲区新発寒5条6丁目2番1号,,43.116800500000000,141.268433700000000,011－685－3434,011－685－3533,5430005001490,医療法人秀友会,110414968,平日,,0,www.shuyukai.or.jp,,,,
11096,150480051,北海道,札幌市手稲区,手稲あんじゅ（介護予防）訪問リハビリテーション事業所,テイネアンジュカイゴヨボウホウモンリハビリテーションジギョウショ,訪問リハビリテーション,北海道札幌市手稲区稲穂5条2丁目6番1号,,43.117568700000000,141.227803000000000,011-685-8200,011-685-8300,7430005000581,社会福祉法人手稲ロータス会,150480051,平日,,10,http://teinelotuskai.com/,,,,
11100,110314705,北海道,札幌市清田区,訪問リハビリステーションしんえい,ホウモンリハビリステーション　シンエイ,訪問リハビリテーション,真栄331番地,,42.978637100000000,141.443860700000000,011-350-5549,011-351-1571,,医療法人　尚仁会,110314705,平日,,,http://syoujinkai.or.jp,,,,
11100,110317328,北海道,札幌市清田区,医療法人社団　鈴木内科医院,イリョウホウジンシャダン　スズキナイカイイン,訪問リハビリテーション,北海道札幌市清田区清田4条2丁目10-25,,42.997627100000000,141.430790000000000,011-882-2233,011-888-2225,,医療法人社団　鈴木内科医院,110317328,平日.土曜日,祝日のある週は土曜日は振替にて営業しています,0,http://www.suzukinaika.or.jp./,,,,
11100,150580108,北海道,札幌市清田区,介護老人保健施設げんきのでる里　訪問リハビリテーション,カイゴロウジンホケンシセツゲンキノデルサト　ホウモンリハビリテーション,訪問リハビリテーション,真栄434番地6,,42.972299600000000,141.432285800000000,011-885-3135,011‐885-7335,3430005000585,社会福祉法人　ノテ福祉会,150580108,平日.祝日,年末年始12/30～1/3を除く,,,,,,
22012,210118311,青森県,青森市,村上病院,ムラカミビョウイン,訪問リハビリテーション,青森市浜田3丁目3-14,,40.797560400000000,140.749143200000000,017-729-8888,017-729-8887,3420005000677,医療法人　芙蓉会,210118311,平日,,50,http://www.fuyoukai.or.jp/murakami_h/,,,,
22021,210215703,青森県,弘前市,津軽保健生活協同組合　健生病院,ツガルホケンセイカツキョウドウクミアイ　ケンセイビョウイン,訪問リハビリテーション,青森県弘前市大字扇町2丁目2番地2,,40.586604900000000,140.501195300000000,0172-55-7177,0172-55-7718,,津軽保健生活協同組合,210215703,平日.土曜日,,50,http://www.kensei-hp.jp/,,,,
22039,210314001,青森県,八戸市,八戸城北病院,ハチノヘジョウホクビョウイン,訪問リハビリテーション,石堂1丁目14-14,,40.529645100000000,141.480804600000000,0178-20-2222,0178-20-2228,5420005002746,医療法人社団豊仁会,210314001,平日,訪問エリアは、八戸市内（南郷地区を除く）。その他地域は要相談。,0,http://www.jouhoku-hp.jp/,,,,
22039,210314118,青森県,八戸市,ちょうじゃの森内科クリニック,チョウジャノモリナイカクリニック,訪問リハビリテーション,青森県八戸市大字糠塚字下道７番地３２ちょうじゃの森内科クリニック,ちょうじゃの森内科クリニック,40.506043100000000,141.489304300000000,0178-46-0811,0178-43-6587,,医療法人康和会,210314118,平日.土曜日,特になし,0,http://www.myclinic.ne.jp/choujanomori/,,,,
22055,210510897,青森県,五所川原市,津軽保健生活協同組合　健生五所川原診療所,ツガルホケンセイカツキョウドウクミアイ　ケンセイゴショガワラシンリョウジョ,訪問リハビリテーション,青森県五所川原市一ツ谷508-7,,40.810307700000000,140.452169400000000,0173-35-2542,0173-35-8456,,津軽保健生活協同組合,210510897,平日,日曜日、国民の祝日、5月1日、8月1日、8月13～14日、12月30～1月3日は休業します。（改行）土曜日の訪問リハビリテーションサービス提供はありません。,0,,,,,
22055,210511002,青森県,五所川原市,増田病院,マスダビョウイン,訪問リハビリテーション,青森県五所川原市字新町４１番地,,40.807299400000000,140.443753600000000,0173-35-2726,0173-33-2251,,済生堂,210511002,平日.土曜日,,9,http://masuda-hp.net/,,,,
22063,210610846,青森県,十和田市,医療法人泰仁会　十和田第一病院,イリョウホウジンタイジンカイ　トワダダイイチビョウイン,訪問リハビリテーション,青森県十和田市東三番町10-70,,40.612063800000000,141.219944500000000,176225511,176227766,,医療法人泰仁会　十和田第一病院,210610846,平日.土曜日,,,http://www.towadahp.or.jp/,,,,
22063,250680055,青森県,十和田市,介護老人保健施設ハートランド　訪問リハビリテーション,カイゴロウジンホケンシセツハートランド　ホウモンリハビリテーション,訪問リハビリテーション,青森県十和田市大字相坂字高清水78‐450,,40.621236400000000,141.255489900000000,0176-25-0122,0176-25-0033,5420005002721,医療法人仁泉会,250680055,平日,,,www.sg-heart.or.jp,,,,
24015,212511588,青森県,野辺地町,北部上北広域事務組合　公立野辺地病院,ホクブカミキタコウイキジムクミアイ　コウリツノヘジビョウイン,訪問リハビリテーション,青森県上北郡野辺地町字鳴沢9-12,,40.856095000000000,141.126277300000000,0175-64-3211,0175-64-5571,,北部上北広域事務組合　公立野辺地病院,212511588,平日,,,http://hospital-noheji-aomori.jp,,,,
24431,212711105,青森県,田子町,医療法人孝信会　福原胃腸科外科医院,イリョウホウジンコウシンカイ　フクハライチョウカゲカイイン,訪問リハビリテーション,青森県三戸郡田子町大字田子字上野ノ下タ９８－７,,40.344169400000000,141.159415800000000,0179-32-2338,0179-32-4659,,医療法人孝信会,212711105,平日,,0,,,,,
22012,210117149,青森県,青森市,青森クリニック,アオモリクリニック,訪問リハビリテーション,青森市篠田1丁目９－１１,,40.826107200000000,140.729496200000000,017-783-2222,017-783-2224,,青森クリニック,210117149,平日,定休日でも必要に応じ訪問可能ですのでご相談下さい,0,http://www.a-clinic.jp/index.html,,,,
22012,210117735,青森県,青森市,津軽医院　訪問リハビリテーション,ツガルイイン　ホウモンリハビリテーション,訪問リハビリテーション,青森県青森市浪岡大字浪岡字浅井205,,40.713633200000000,140.593260300000000,0172-62-3101,0172-62-7434,,津軽保健生活協同組合,210117735,平日,祝日、5月1日（メーデー）、8月1日（創立記念日）、8月13日～14日（お盆）、12月30日～1月3日（年末年始）は休業いたします。,,,,,,
22012,210118576,青森県,青森市,医療法人雄心会青森新都市病院,イリョウホウジンユウシンカイアオモリシントシビョウイン,訪問リハビリテーション,青森県青森市石江3丁目1番地,,40.830219700000000,140.692685500000000,017-757-8750,017-788-9901,2440005000321,雄心会,210118576,平日,,,http://aomorishintoshi-hp.yushinkai.jp/,,,,
22012,270105653,青森県,青森市,訪問リハビリテーション　ブルーム,ホウモンリハビリテーション　ブルーム,訪問リハビリテーション,青森県青森市大字矢田前字弥生田４７－２,,40.829230700000000,140.808478700000000,017-726-5211,017-726-9600,5420005000386,社会福祉法人恵寿福祉会,270105653,平日,,,www.keiju-w.or.jp,,,,
22012,270105893,青森県,青森市,ユニット型介護老人保健施設青照苑　訪問リハビリテーション,ユニットガタカイゴロウジンホケンシセツセイショウエン　ホウモンリハビリテーション,訪問リハビリテーション,青森市羽白字野木和45,,40.847667000000000,140.678482500000000,017-718-5594,017-718-5595,5420005000543,一般社団法人　慈恵会,270105893,平日,無し,0,,,,,
22012,250180072,青森県,青森市,医療法人芙蓉会　介護老人保健施設　ニューライフ芙蓉　訪問リハビリテーション,イリョウホウジンフヨウカイ　カイゴロウジンホケンシセツ　ニューライフフヨウ　ホウモンリハビリテーション,訪問リハビリテーション,青森県青森市妙見3丁目11-14,,40.788478800000000,140.763421800000000,017-728-2200,017-728-2203,,医療法人　芙蓉会,250180072,平日,,,http://www.fuyoukai.or.jp/,,,,
22021,210215117,青森県,弘前市,一般財団法人　黎明郷　弘前脳卒中・リハビリテーションセンター,イッパンザイダンホウジン　レイメイキョウ　ヒロサキノウソッチュウ・リハビリテーションセンター,訪問リハビリテーション,青森県弘前市大字扇町一丁目２番地１,,40.586752200000000,140.503878300000000,０１７２－２８－８２２０,０１７２－２７－９１１３,8420005005234,一般財団法人　黎明郷,210215117,平日.祝日,,,,,,,
22021,210215687,青森県,弘前市,津軽保健生活協同組合　健生クリニック,ツガルホケンセイカツキョウドウクミアイ　ケンセイクリニック,訪問リハビリテーション,青森県弘前市大字扇町二丁目2番地12健生クリニック,健生クリニック,40.586237186663500,140.501270874869000,0172-55-7707,0172-55-7708,,津軽保健生活協同組合,210215687,平日.土曜日,土日祝日、５月１日（メーデー）、８月１日（創立記念日）、８月１３日～１４日（盆休み）、１２月３０日～１月３日（正月休み）,0,http://www.kensei-hp.jp/,,,,
22039,210314530,青森県,八戸市,八戸医療生活協同組合　八戸生協診療所　訪問リハビリテーション,ハチノイリョウセイカツキョウドウクミアイ　ハチノヘセイキョウシンリョウジョ　ホウモンリハビリテーション,訪問リハビリテーション,青森県八戸市南類家1-17-1,,40.503761700000000,141.503358200000000,0178-71-2525,0178-44-0334,,八戸医療生活協同組合,210314530,平日.祝日,水曜日・土曜日はサービス提供していない,,https://www.hachinohe-iryou.jp/,,,,
22039,210315776,青森県,八戸市,なかざわスポーツクリニック,ナカザワスポーツクリニック,訪問リハビリテーション,青森県八戸市新井田館下1番地,,40.492362500000000,141.520557700000000,0178-30-2020,0178-30-2022,1420005002766,医療法人なかざわ整形外科　なかざわスポーツクリニック,210315776,平日.土曜日,,0,http://www.nakazawa-clinic.com,,,,
22039,210316261,青森県,八戸市,八戸在宅クリニック,ハチノヘザイタククリニック,訪問リハビリテーション,青森県八戸市岩泉町7,,40.508923300000000,141.494325800000000,0178-47-7778,0178-47-7767,5420005002721,医療法人仁泉会,210316261,平日.祝日,特になし,0,http//zaitakuclinic.web.fc2.com/,,,,
22039,210316279,青森県,八戸市,メディカルコート　八戸西病院,メディカルコート　ハチノヘニシビョウイン,訪問リハビリテーション,青森県八戸市長苗代字中坪７７番地,,40.517021400000000,141.451386100000000,0178-28-4000,0178-20-4962,1420005002667,公益財団法人シルバーリハビリテーション協会,210316279,平日.土曜日.祝日,祝日は平日、土曜日と同様（改行）日曜日、年末年始（１２月３０日～１月３日）は休業,0,http://www.sg-silver.or.jp/,,,,
22039,210316287,青森県,八戸市,シルバークリニック,シルバークリニック,訪問リハビリテーション,青森県八戸市大字河原木字八太郎山10-444,,40.552054675968900,141.483995064418000,0178-28-4688,0178-28-4576,,公益財団法人　シルバーリハビリテーション協会,210316287,平日,,0,http://sg-silver.com/,,,,
22063,250680014,青森県,十和田市,老人保健施設　みのり苑　訪問リハビリテーション,ロウジンホケンシセツ　ミノリエン　ホウモンリハビリテーション,訪問リハビリテーション,青森県十和田市大字切田字横道100-22,,40.569372200000000,141.193343800000000,0176-25-1100,0176-25-1115,,社会福祉法人　福祉の里,250680014,平日.祝日,,,http://www.fukushinosato.com,,,,
22080,270800659,青森県,むつ市,みちのく訪問リハビリテーションセンター,ミチノクホウモンリハビリテーションセンター,訪問リハビリテーション,青森県むつ市金谷二丁目20番1号みちのく金谷リハビリテーションセンター,みちのく金谷リハビリテーションセンター,41.295857000000000,141.194152000000000,0175-23-1170,0175-23-0761,,社会福祉法人　青森社会福祉振興団,270800659,平日.祝日,,0,http://www.michinokuso.or.jp,,,,
23019,212010748,青森県,平内町,平内町国民健康保険平内中央病院,ヒラナイマチコクミンケンコウホケンヒラナイチュウオウビョウイン,訪問リハビリテーション,青森県東津軽郡平内町大字小湊字外ノ沢１－１,,40.919758900000000,140.947006900000000,017-755-2131,017-755-2233,,平内町国民健康保険平内中央病院,212010748,平日,,80,https://www.hiranai-chp.jp/,,,,
23213,252180013,青森県,鰺ヶ沢町,老人保健施設ながだい荘,ロウジンホケンシセツナガダイソウ,訪問リハビリテーション,青森県西津軽郡鯵ヶ沢町大字長平町字甲音羽山６５-４１２老人保健施設ながだい荘,老人保健施設ながだい荘,40.711868100000000,140.287495500000000,0173-72-1122,0173-72-1118,3420005003952,社会福祉法人　音羽会,252180013,平日.祝日,,0,http://otowakai.or.jp/,,,,
23612,212310973,青森県,藤崎町,ときわ会病院,トキワカイビョウイン,訪問リハビリテーション,大字榊字亀田2-1,,40.672837500000000,140.533038000000000,0172-65-3771,0172-65-3773,1420005004952,医療法人　ときわ会,212310973,平日.土曜日,特になし,0,tkhp-reha@tokiwakai.or.jp,,,,
23841,252480017,青森県,鶴田町,介護老人保健施設湖水荘　訪問リハビリテーション,カイゴロウジンホケンシセツコスイソウ　ホウモンリハビリテーション,訪問リハビリテーション,大字廻堰字東下山９１－２,,40.758080800000000,140.387493500000000,0173-22-5694,0173-22-5876,8420005003551,社会福祉法人桂久会,252480017,平日,,0,,,,,
24244,252680004,青森県,東通村,東通村介護老人保健施設「のはなしょうぶ」,ヒガシドオリムラカイゴロウジンホケンシセツ「ノハナショウブ」,訪問リハビリテーション,青森県下北郡東通村砂子又字里１７番地２,,41.276659500000000,141.337416200000000,0175-28-5400,0175-28-5401,2010005014562,公益社団法人地域医療振興協会,252680004,平日.土曜日,,0,http://www.nohana.net/,,,,
24414,212711170,青森県,三戸町,三戸町国民健康保険三戸中央病院,サンノヘマチコクミンケンコウホケンサンノヘチュウオウビョウイン,訪問リハビリテーション,青森県三戸郡三戸町大字川守田字沖中９番地１,,40.391221900000000,141.268960100000000,0179-20-1131,0179-20-1320,,三戸町国民健康保険三戸中央病院,212711170,平日,正午から午後１時までは準備時間といたします。,0,http://hospital.town.sannohe.aomori.jp/,,,,
32018,310116231,岩手県,盛岡市,千藤了会久保田医院,セントウリョウカイクボタイイン,訪問リハビリテーション,盛岡市大館町26-3,,39.712439600000000,141.109748600000000,019-646-9090,019-646-9091,,千藤了会久保田医院,310116231,平日,通所リハビリの方のサービスも兼ねておりますので、訪問の時間は相談となります。,,,,,,
32158,311510887,岩手県,奥州市,奥州市国民健康保険衣川診療所,オウシュウシコクミンケンコウホケンコロモガワシンリョウショ,訪問リハビリテーション,岩手県奥州市衣川区古戸４８番地３,,39.041348800000000,141.064354600000000,0197-52-3500,0197-52-3502,,奥州市,311510887,平日,,,,,,,
32018,310114079,岩手県,盛岡市,盛岡友愛病院訪問リハビリテーション,モリオカユウアイビョウインホウモンリハビリテーション,訪問リハビリテーション,岩手県盛岡市永井１２－１０,,39.658285300000000,141.137184200000000,019-632-6111,019-632-6112,,医療法人友愛会,310114079,平日.土曜日.祝日,,,http:www.yu-ai.net/,,,,
32166,352180038,岩手県,滝沢市,介護老人保健施設カルモナ訪問リハビリテーション,カイゴロウジンホケンシセツカルモナホウモンリハビリテーション,訪問リハビリテーション,岩手県滝沢市高屋敷平11-39,,39.734683800000000,141.077095000000000,019-684-2021,019-684-2024,,社団医療法人　池田記念会,352180038,平日,,,,,,,
32018,310115506,岩手県,盛岡市,医療法人　児島内科小児科医院,イリョウホウジン　コジマナイカショウニカイイン,訪問リハビリテーション,岩手県盛岡市みたけ三丁目11番36号,,39.738173400000000,141.113708600000000,019-641-3310,019-641-8917,,医療法人　児島内科小児科医院,310115506,平日,,0,,,,,
32085,370800468,岩手県,遠野市,岩手県立遠野病院,イワテケンリツトオノビョウイン,訪問リハビリテーション,岩手県遠野市松崎町白岩14地割74番地岩手県立遠野病院,岩手県立遠野病院,39.338553100000000,141.542660300000000,198622222,198620113,,岩手県　県立病院等事業管理者,370800468,平日,平日木曜日、８月１４日から８月１６日および、１２月２９日から１月３日はご利用できません。,0,http://www.tono-hospital.com/,,,,
32018,310110309,岩手県,盛岡市,医療法人　遠山病院,イリョウホウジン　トオヤマビョウイン,訪問リハビリテーション,岩手県盛岡市下ノ橋町６－１４,,39.697050600000000,141.148856700000000,019-651-2111,019-624-6060,,医療法人　遠山病院,310110309,平日.土曜日,,0,http://www.toyama-byouin.jp,,,,
32077,350780003,岩手県,久慈市,介護老人保健施設　リハビリタウンくじ,カイゴロウジンホケンシセツ　リハビリタウンクジ,訪問リハビリテーション,岩手県久慈市旭町8-100-2,,40.200328600000000,141.774629300000000,0194-53-0056,0194-52-8660,7400005004932,医療法人健生会,350780003,平日,,,http://rehabilitown-kuji.jimdo.com,,,,
33014,352180046,岩手県,雫石町,はーとぽーと雫石指定訪問リハビリテーション事業所,ハートポートシズクイシシテイホウモンリハビリテーションジギョウショ,訪問リハビリテーション,岩手県岩手郡雫石町板橋３－７,,39.701882300000000,141.019636700000000,019-692-3336,019-692-3371,3400005002337,社団医療法人三和会,352180046,平日.土曜日.祝日,,,,,,,
32140,311410070,岩手県,八幡平市,医療法人社団柊会森整形外科,イリョウホウジンシャダンヒイラギカイモリセイケイゲカ,訪問リハビリテーション,岩手県八幡平市大更第２５地割１１７番地２,,39.913918500000000,141.097083100000000,0195-76-2318,0195-76-3607,8400005002662,医療法人社団柊会,311410070,平日.土曜日,冬期間や道路状況によっては１８時を超過することがある。予定時刻に遅れる場合には事前に訪問先に連絡し、了解を得てから訪問する。,0,,,,,
32158,351280003,岩手県,奥州市,介護老人保健施設サンライフえさし,カイゴロウジンホケンシセツサンライフエサシ,訪問リハビリテーション,岩手県奥州市江刺岩谷堂字下惣田290番地の3,,39.181314300000000,141.182063700000000,0197-35-8480,0197-35-8482,1400605000270,医療法人青樹会,351280003,平日,,,,,,,
32018,310117536,岩手県,盛岡市,なないろのとびら診療所,ナナイロノトビラシンリョウジョ,訪問リハビリテーション,岩手県盛岡市仙北二丁目1-20レコロス仙北１F,レコロス仙北１F,39.686916600000000,141.149227500000000,019-601-3101,,,なないろのとびら診療所,310117536,平日,,,,,,,
33669,312410475,岩手県,西和賀町,町立西和賀さわうち病院,チョウリツニシワガサワウチビョウイン,訪問リハビリテーション,岩手県和賀郡西和賀町沢内字大野13-3-12,,39.372441700000000,140.761474800000000,0197-85-3131,0197-85-3135,,西和賀町,312410475,平日,,0,http://www.town.nishiwaga.lg.jp/,,,,
32140,311410096,岩手県,八幡平市,東八幡平病院リハビリテーション部訪問リハビリテーション科,ヒガシハチマンタイビョウイン　リハビリテーションブ　ホウモンリハビリテーションカ,訪問リハビリテーション,岩手県八幡平市柏台二丁目８番２号,,39.915905285940200,140.982116145200000,0195-78-2511,0195-78-3437,2400005005282,一般財団法人みちのく愛隣協会,311410096,平日.土曜日,利用者様のご都合により、訪問予定日の変更も随時相談に応じます。,0,,,,,
32158,311510879,岩手県,奥州市,奥州市国民健康保険まごころ病院,オウシュウシコクミンケンコウホケンマゴコロビョウイン,訪問リハビリテーション,岩手県奥州市胆沢南都田字大持40番地,,39.129042100000000,141.067817400000000,0197-46-2121,0197-46-2203,,奥州市,311510879,平日,定休日：土曜日、日曜日、祝日及び年末年始（12/29～1/3）,,http://www.city.oshu.iwate.jp/htm/magokoro/,,,,
32018,310112552,岩手県,盛岡市,医療法人　謙和会　荻野病院,イリョウホウジン　ケンワカイ　オギノビョウイン,訪問リハビリテーション,盛岡市本宮一丁目6番12号,,39.690404300000000,141.140827200000000,019-636-0317,019-635-1304,6400005000651,医療法人　謙和会　荻野病院,310112552,平日,,,http://www.oginohospital.jp,,,,
32018,310110283,岩手県,盛岡市,中津川病院,ナカツガワビョウイン,訪問リハビリテーション,岩手県盛岡市下米内二丁目４番１２号,,39.718060000000000,141.176075800000000,019-662-3252,019-661-8414,1400005005267,一般財団法人岩手済生医会,310110283,平日,,0,http://www.iwate-nakatugawa-hp.jp/701.html,,,,
32018,310116850,岩手県,盛岡市,おはようクリニック通所リハ,オハヨウクリニックツウショリハ,訪問リハビリテーション,岩手県盛岡高松２丁目２７－６,,39.724738900000000,141.135923700000000,019-662-0850,019-662-0852,,おはようクリニック,310116850,平日.土曜日,水曜日は午前のみ（改行）13時まで,6,http://website2.infomity.net/8460000065/,,,,
32018,310117247,岩手県,盛岡市,メディケアプラザ中央通りクリニック,メディケアプラザチュウオウドオリクリニック,訪問リハビリテーション,岩手県盛岡市中央通３丁目16-23メディケアプラザ中央通りクリニック,メディケアプラザ中央通りクリニック,39.705795694812500,141.141032505557000,019-654-3782,019-654-3783,7400005000691,特定医療法人盛岡つなぎ温泉病院,310117247,平日,,1,http://mccyuo.byoinnavi.jp/,,,,
32018,370102675,岩手県,盛岡市,とちない脳神経外科クリニック,トチナイノウシンケイゲカクリニック,訪問リハビリテーション,岩手県盛岡市津志田中央3丁目１７－１０,,39.661315900000000,141.153579800000000,019-637-7000,019-639-5285,,とちない脳神経外科クリニック,370102675,平日.土曜日,水曜：9：00～13：00,20,http://tochicli.com,,,,
32018,310117478,岩手県,盛岡市,大澤クリニック,オオサワクリニック,訪問リハビリテーション,岩手県盛岡市茶畑二丁目8番3号,,39.692780400000000,141.164606900000000,019-652-0038,019-652-0039,,大澤クリニック,310117478,平日.土曜日,,,https://www.clinic-osawa.com/#,,,,
32034,350380010,岩手県,大船渡市,気仙苑訪問リハビリテーション,ケセンエンホウモンリハビリテーション,訪問リハビリテーション,岩手県大船渡市大船渡町字山馬越188,,39.071021900000000,141.710066400000000,0192-27-8877,0192-27-8871,7402705000079,医療法人勝久会,350380010,平日.土曜日.祝日,,0,http://www.shokyukai.or.jp/,,,,
32034,370300600,岩手県,大船渡市,訪問リハビリステーションさんぽ大船渡,ホウモンリハビリステーションサンポオオフナト,訪問リハビリテーション,岩手県大船渡市盛町字木町3番地4カーサビレッジ2　1階,カーサビレッジ2　1階,39.090214000000000,141.707207600000000,0192-22-7901,0192-22-7902,9402701000535,ロッツ株式会社,370300600,平日.祝日,・祝日は原則、通常営業,170,http://lots.co.jp,,,,
32026,310210505,岩手県,宮古市,宮古第一病院,ミヤコダイイチビョウイン,訪問リハビリテーション,岩手県宮古市保久田８番３７号,,39.644455700000000,141.947109900000000,0193-62-3738,0193-71-2268,5400005004125,特定医療法人弘慈会,310210505,平日.祝日,,8,http://www.miyakodaiichi-hp.or.jp,,,,
32069,310611157,岩手県,北上市,日高見中央クリニック訪問リハビリ,ヒダカミチュウオウクリニックホウモンリハビリ,訪問リハビリテーション,岩手県北上市北鬼柳22-46,,39.291326516123500,141.095644247307000,0197-88-2835,0197-65-3112,8400005003462,医療法人社団敬和会,310611157,平日.土曜日.祝日,,0,,,,,
32069,350690010,岩手県,北上市,介護老人保健施設　たいわ,カイゴロウジンホケンシセツ　タイワ,訪問リハビリテーション,岩手県北上市北鬼柳20-20,,39.293058100000000,141.092206500000000,0197-77-3300,0197-77-3399,8400005003462,医療法人社団敬和会,350690010,平日.土曜日.祝日,,0,http://www.keiwakai.info/,,,,
32093,310911383,岩手県,一関市,ひがしやま病院　訪問リハビリテーション,ヒガシヤマビョウイン　ホウモンリハビリテーション,訪問リハビリテーション,岩手県一関市東山町松川字卯入道１２１,,38.961580600000000,141.249368400000000,0191-48-2666,0191-48-2777,7400505000101,社団医療法人西城病院,310911383,平日,水曜９時００分～１３時１０分（改行）金曜９時００分～１１時３０分,0,http://www.higashiyama-hp.com,,,,
32093,372700658,岩手県,一関市,介護老人保健施設やまゆり,カイゴロウジンホケンシセツヤマユリ,訪問リハビリテーション,岩手県一関市千厩町千厩字宮敷45番地1,,38.923184000000000,141.339498000000000,0191-51-3303,0191-51-3305,3400505000113,医療法人三秋会,372700658,平日,,,http://i3syukai.com,,,,
32093,370900086,岩手県,一関市,一関中央クリニック,イチノセキチュウオウクリニック,訪問リハビリテーション,岩手県一関市中央町二丁目4番2号,,38.937269600000000,141.128761800000000,0191-48-5403,0191-48-5404,3400505000113,医療法人三秋会,370900086,平日,,,https://i3syukai.com/,,,,
32093,310910096,岩手県,一関市,一関病院　訪問リハビリテーション,イチノセキビョウイン　ホウモンリハビリテーション,訪問リハビリテーション,岩手県一関市大手町3-36,,38.929526500000000,141.134872300000000,0191-23-2050,0191-26-4694,9400505000099,医療法人博愛会,310910096,平日.土曜日,土曜日は第２第４が非稼働日（祝日の振り替え対応も応相談）,0,http://www.ichi-hp.jp/,,,,
32093,350980017,岩手県,一関市,介護老人保健施設一関ナーシングホーム,カイゴロウジンホケンシセツイチノセキナーシングホーム,訪問リハビリテーション,岩手県一関市真柴字吉ケ沢20番地52,,38.881515690096100,141.138575192065000,0191-26-3536,0191-26-2032,6400505000110,医療法人社団仁愛会,350980017,平日.土曜日.祝日,,,http://jinaikai-nursing.sakura.ne.jp/,,,,
32107,371000258,岩手県,陸前高田市,訪問リハビリステーションさんぽ,ホウモンリハビリステーションサンポ,訪問リハビリテーション,岩手県陸前高田市高田町字館の沖1番地アバッセタカタ専門店街,アバッセタカタ専門店街,39.030916126912500,141.619002249799000,0192-53-1122,0192-53-1123,9402701000535,ロッツ株式会社,371000258,平日.祝日,,100,http://lots.co.jp,,,,
32115,311110597,岩手県,釜石市,はまゆり訪問リハビリステーション,ハマユリホウモンリハビリステーション,訪問リハビリテーション,岩手県釜石市小佐野町4-3-7せいてつ記念病院内,せいてつ記念病院内,39.261733400000000,141.835843500000000,0193-21-1230,0193-21-1230,8400005004403,医療法人楽山会,311110597,平日.土曜日,土曜日は、月1回営業日,0,,,,,
35076,353180003,岩手県,洋野町,介護老人保健施設ユートピア白滝訪問リハビリテーション,カイゴロウジンホケンシセツユートピアシラタキホウモンリハビリテーション,訪問リハビリテーション,岩手県洋野町中野第3地割38-182,,40.306543544918600,141.781827980951000,0194-67-5161,0194-67-5164,8400005004865,社会福祉法人慈恵会,353180003,平日.祝日,,0,https://utopiashirataki.jimdofree.com/,,,,
33227,312211105,岩手県,矢巾町,訪問リハビリテーションこずかた,ホウモンリハビリテーションコズカタ,訪問リハビリテーション,岩手県紫波郡矢巾町大字又兵ェ新田第5地割３３５番地医療福祉多機能ビル　ケアセンター南昌,医療福祉多機能ビル　ケアセンター南昌,39.613418700000000,141.146929800000000,019-611-1380,019-611-2071,9400005002406,医療法人社団帰厚堂,312211105,平日,,0,http://www.kikodo.or.jp/,,,,
33227,372200980,岩手県,矢巾町,介護老人保健施設シェーンハイムやはば,カイゴロウジンホケンシセツ　シェーンハイムヤハバ,訪問リハビリテーション,岩手県紫波郡矢巾町土橋第11地割35-1,,39.583111900000000,141.172142300000000,019-697-0066,019-697-0122,1400005007635,社会福祉法人爽生会,372200980,平日,祝日が営業日の場合あり。サービス利用可能時間は平日と同じ。,,http://www.s-souseikai.jp,,,,
34614,372900241,岩手県,大槌町,あかね会訪問リハビリテーション事業所,アカネカイホウモンリハビリテーションジギョウショ,訪問リハビリテーション,岩手県上閉伊郡大槌町小鎚14地割字蕨打直82－1,,39.379303907885300,141.845224204419000,0193-41-1288,0193-41-1288,7400005004404,医療法人あかね会,372900241,平日.土曜日.祝日,,,,,,,
32158,311510036,岩手県,奥州市,医療法人清和会　奥州病院,イリョウホウジンセイワカイ　オウシュウビョウイン,訪問リハビリテーション,岩手県奥州市水沢東大通り1丁目5番30号,,39.139809900000000,141.147957000000000,0197-25-3033,0197-51-6673,8400605000149,医療法人清和会,311510036,平日,,0,http://www.hopital-ohshu.or.jp/,,,,
32166,311610034,岩手県,滝沢市,栃内第二病院,トチナイダイニビョウイン,訪問リハビリテーション,岩手県滝沢市大釜吉水103番地1,,39.698789300000000,141.057675200000000,019-684-1111,019-684-1114,3400005000679,医療法人巖心会,311610034,平日.土曜日,,0,http://www.tochinai.com,,,,
32166,311610232,岩手県,滝沢市,医療法人社団松誠会　滝沢中央病院,イリョウホウジンシャダンショウセイカイ　タキザワチュウオウビョウイン,訪問リハビリテーション,岩手県滝沢市鵜飼笹森42番地2,,39.735600386018700,141.091219776721000,019-684-1151,019-684-2458,1400005000631,医療法人社団松誠会,311610232,平日.土曜日,特記事項なし,,https://takizawa-hp.jp/,,,,
32018,310112875,岩手県,盛岡市,特定医療法人盛岡つなぎ温泉病院,トクテイイリョウホウジンモリオカツナギオンセンビョウイン,訪問リハビリテーション,岩手県盛岡市繋字尾入野６４番地９,,39.689517200000000,141.023567600000000,019-689-2101,019-689-2104,7400005000691,特定医療法人盛岡つなぎ温泉病院,310112875,平日.土曜日,,0,http://tsunagi-hp.net,,,,
32018,310113998,岩手県,盛岡市,盛岡医療生活協同組合　川久保病院,モリオカイリョウセイカツキョウドウクミアイ　カワクボビョウイン,訪問リハビリテーション,岩手県盛岡市津志田２６－３０－１,,39.672362100000000,141.156487300000000,019-635-1381,019-635-1963,8400005000708,盛岡医療生活協同組合,310113998,平日.土曜日.祝日,お盆も日曜日でなければ、通常営業しております。,0,https://www.kawakubo-hos.jp/,,,,
32018,310115217,岩手県,盛岡市,鎌田内科クリニック　訪問リハビリテーション,カマタナイカクリニック　ホウモンリハビリテーション,訪問リハビリテーション,岩手県盛岡市本宮２－２０－１,,39.688834934158000,141.137680301852000,019-636-1725,019-635-2918,7400005000642,医療法人久遠会,310115217,平日,,0,https://www.kamata-cl.com,,,,
32018,310116389,岩手県,盛岡市,孝仁病院,コウジンビョウイン,訪問リハビリテーション,岩手県盛岡市中太田泉田２８番地,,39.700482400000000,141.110321200000000,019-656-2888,019-656-2909,4400605000144,社団医療法人啓愛会,310116389,平日,,0,http://kojin-hp.jp/,,,,
32018,310117189,岩手県,盛岡市,ゆうあいの街クリニック,ユウアイノマチクリニック,訪問リハビリテーション,岩手県盛岡市北飯岡1丁目2番25号,,39.679274500000000,141.133169700000000,019-634-1140,019-634-1141,5400005000693,医療法人友愛会,310117189,平日.土曜日,,0,http://www.yu-ai.net/,,,,
32018,310117312,岩手県,盛岡市,医療法人天音会おいかわ内科クリニック,イリョウホウジンアマネカイオイカワナイカクリニック,訪問リハビリテーション,岩手県盛岡市上田1丁目18番38号リハスペースおいかわ,リハスペースおいかわ,39.711107100000000,141.139954300000000,019-623-3961,019-653-3836,7400005005575,医療法人天音会,310117312,平日.土曜日,,,http://www.o-med.net,,,,
32018,310114038,岩手県,盛岡市,盛岡南病院訪問リハビリテーション,モリオカミナミビョウインホウモンリハビリテーション,訪問リハビリテーション,岩手県盛岡市津志田13地割18番地4,,39.656469200000000,141.155929900000000,019-638-2020,019-637-3383,2400005000630,医療法人社団愛和会,310114038,平日,,0,http://moriokaminami-hp.com/,,,,
32018,310117544,岩手県,盛岡市,医療法人葵会もりおか往診ホームケアクリニックもりおかリハビリテーションセンター葵,イリョウホウジンアオイカイモリオカオウシンホームケアクリニックモリオカリハビリテーションセンターアオイ,訪問リハビリテーション,岩手県盛岡市北飯岡3丁目-20-3,,39.668137200000000,141.136070600000000,019-613-6770,019-613-6776,7400005001005,医療法人葵会,310117544,平日.祝日,,,https://www.mhc-clinic.jp,,,,
32018,370101685,岩手県,盛岡市,マリオス小林内科クリニック,マリオスコバヤシナイカクリニック,訪問リハビリテーション,岩手県盛岡市盛岡駅西通2-9-1マリオス11階,マリオス11階,39.701105000000000,141.133450000000000,019-652-5717,019-656-8187,5400005000958,医療法人杉の子会,370101685,平日.土曜日.祝日,土曜、祝日のサービスに関しては、個別にご相談ください。,0,https://malios-naika.jp,,,,
32018,370102816,岩手県,盛岡市,松園第一病院,マツゾノダイイチビョウイン,訪問リハビリテーション,岩手県盛岡市東黒石野三丁目2番1号,,39.748627091154000,141.158529770500000,019-662-6111,019-661-2090,3400005000687,医療法人共生会,370102816,平日.土曜日,水曜日は8時30分～12時30分まで,50,http://www.matsuzono.jp,,,,
32051,310511555,岩手県,花巻市,花巻市石鳥谷医療センター,ハナマキシイシドリヤイリョウセンター,訪問リハビリテーション,岩手県花巻市石鳥谷町八幡5-47-2,,39.484420600000000,141.149227900000000,0198-45-3111,0198-45-3113,1400005003147,医療法人中庸会,310511555,平日.土曜日,その他については石鳥谷医療センターの休業日に準ずる。,0,http://chuyokai.or.jp/index2.php,,,,
32051,310511563,岩手県,花巻市,医療法人報恩会とみつか脳神経外科クリニック,イリョウホウジンホウオンカイトミツカノウシンケイゲカクリニック,訪問リハビリテーション,岩手県花巻市御田屋町1-41,,39.387320400000000,141.124155800000000,0198-23-2100,0198-23-2103,3400005003368,医療法人報恩会とみつか脳神経外科クリニック,310511563,平日.土曜日,,0,http://tomy-clinic.net,,,,
32026,310210760,岩手県,宮古市,おかだ外科内科クリニック訪問リハビリテーション事業所,オカダゲカナイカクリニックホウモンリハビリテーションジギョウショ,訪問リハビリテーション,岩手県宮古市実田2-5-10,,39.623470400000000,141.953149500000000,0193-77-5814,0193-77-5819,1400005004335,医療法人おかだ外科内科クリニック,310210760,平日.祝日,,,http://www.heartland-miyako.org,,,,
32069,310611777,岩手県,北上市,ホームケアクリニックえん,ホームケアクリニックエン,訪問リハビリテーション,岩手県北上市青柳町二丁目5番15号,,39.284511200000000,141.117089100000000,0197-61-5160,0197-61-5161,1400005007957,医療法人わげん,310611777,平日,,,http://hhc-en.jp/,,,,
32085,350880001,岩手県,遠野市,介護老人保健施設とおの,カイゴロウジンホケンシセツトオノ,訪問リハビリテーション,岩手県遠野市松崎町白岩13-30-2,,39.342269500000000,141.537371500000000,0198-60-1121,0198-60-1131,8400005003462,医療法人社団敬和会,350880001,平日.土曜日.祝日,,0,,,,,
32107,351080007,岩手県,陸前高田市,介護老人保健施設　松原苑訪問リハビリテーション,カイゴロウジンホケンシセツ　マツバラエンホウモンリハビリテーション,訪問リハビリテーション,岩手県陸前高田市高田町字中田69番地2,,39.014721300000000,141.648759500000000,0192-53-1877,0192-53-1632,7402705000079,医療法人勝久会,351080007,平日.土曜日.祝日,,,http://www.shokyukai.or.jp,,,,
32131,351380019,岩手県,二戸市,湯の里にのへ,ユノサトニノヘ,訪問リハビリテーション,岩手県二戸市金田一字湯田24番地,,40.320554100000000,141.320321000000000,0195-27-3311,0195-27-3315,9400005000450,社会福祉法人麗沢会,351380019,平日.祝日,,10,http://www.reitakukai.net/,,,,
33031,312111388,岩手県,岩手町,さわやかクリニック,サワヤカクリニック,訪問リハビリテーション,岩手県岩手郡岩手町大字江刈内10-47-2,,39.966135400000000,141.221473500000000,0195-62-2043,0195-62-1358,8400005000708,盛岡医療生活協同組合,312111388,平日,,0,http://sawayaka-c.net/,,,,
33014,312110919,岩手県,雫石町,いわてリハビリテーションセンター,イワテリハビリテーションセンター,訪問リハビリテーション,岩手県岩手郡雫石町七ツ森16番地243,,39.703756800000000,141.012918000000000,019-692-5800,019-692-5807,6400005002334,公益財団法人いわてリハビリテーションセンター,312110919,平日,,0,http://www.irc.or.jp,,,,
34827,313010530,岩手県,山田町,近藤医院訪問リハビリテーション,コンドウイインホウモンリハビリテーション,訪問リハビリテーション,岩手県下閉伊郡山田町飯岡9-23-1医療法人晃生会近藤医院,医療法人晃生会近藤医院,39.466280670946200,141.946044550818000,0193-82-3328,0193-82-2006,7400005004164,医療法人晃生会,313010530,平日.祝日,,0,,,,,
34029,352680003,岩手県,平泉町,介護老人保健施設さわなり苑,カイゴロウジンホケンシセツサワナリエン,訪問リハビリテーション,岩手県西磐井郡平泉町長島字砂子沢６番１,,38.996053300000000,141.145596100000000,0191-46-3010,0191-46-5003,3400505000113,医療法人三秋会,352680003,平日,営業しない日　土曜日・日曜日・祝日・８月１４日～１６日・１２月３１日～１月３日,,https://i3syukai.com,,,,
34835,353080026,岩手県,岩泉町,ふれんどりー岩泉指定訪問リハビリ事業所,フレンドリーイワイズミシテイホウモンリハビリジギョウショ,訪問リハビリテーション,岩手県下閉伊郡岩泉町乙茂字上9-12,,39.840373100000000,141.859285000000000,0194-22-5100,0194-22-5150,5400005004257,社団医療法人緑川会,353080026,平日.祝日,,0,,,,,
32166,311610166,岩手県,滝沢市,こんの神経内科・脳神経外科クリニック,コンノシンケイナイカ・ノウシンケイゲカクリニック,訪問リハビリテーション,岩手県滝沢市牧野林1010-4,,39.752540800000000,141.101548200000000,019-699-1111,019-699-1112,4400005002261,医療法人館,311610166,平日.土曜日,,0,,,,,
41050,415510577,宮城県,仙台市泉区,医療法人松田会　松田病院,イリョウホウジンマツダカイ　マツダビョウイン,訪問リハビリテーション,仙台市泉区実沢字立田屋敷17番地の1,,38.334461700000000,140.838660200000000,022-378-5666,022-378-5009,,医療法人　松田会,415510577,平日.土曜日,日曜日、祝日は訪問を行っておりません。,,http://www.matsuda-hp.com/,,,,
42021,410211320,宮城県,石巻市,齋藤病院,サイトウビョウイン,訪問リハビリテーション,石巻市山下町1丁目7-24,,38.432713400000000,141.293642600000000,0225-96-3251,0225-96-9427,,医療法人　社団仁明会　齋藤病院,410211320,平日.土曜日,サ－ビスを提供する区域によって移動時間が考慮されることがあります,,http://www.jinmei.or.jp/saito/,,,,
43613,452480023,宮城県,亘理町,老人保健施設　和多里ホーム,ロウジンホケンシセツ　ワタリホーム,訪問リハビリテーション,宮城県亘理郡亘理町字裏城戸155,,38.030077200000000,140.859911600000000,0223-34-0311,0223-34-0312,,医療法人社団　三上医院,452480023,平日,,0,www.watarihome.jp,,,,
41017,435132972,宮城県,仙台市青葉区,イノマタデンタルクリニック　訪問リハビリテーション,イノマタデンタルクリニック　ホウモンリハビリテーション,訪問リハビリテーション,宮城県仙台市青葉区五橋1-6-2KJビル8F,KJビル8F,38.253444600000000,140.881088600000000,022-266-0022,022-266-0051,2370005001351,医療法人社団裕歯会,435132972,平日,,8,http://www.inomatadental.com/,,,,
41025,415211812,宮城県,仙台市宮城野区,医療法人　岩切病院,イリョウホウジン　イワキリビョウイン,訪問リハビリテーション,仙台市宮城野区岩切字稲荷21,,38.300602100000000,140.938291200000000,022-255-5134,022-255-3363,6370005001158,医療法人　岩切病院,415211812,平日.土曜日,日曜・祝祭日・年末年始(12/31～1/3),0,http://iwakiri-hp.jp,,,,
41041,415411842,宮城県,仙台市太白区,浅沼整形外科訪問リハビリテーション事業所,アサヌマセイケイゲカホウモンリハビリテーションジギョウショ,訪問リハビリテーション,宮城県仙台市太白区長町4-7-12,,38.229983000000000,140.881155900000000,022-304-3335,022-304-2322,,医療法人太長会浅沼整形外科,415411842,平日.土曜日,,0,http://www.asanuma-clinic.jp/,,,,
42153,451580047,宮城県,大崎市,介護老人保健施設　庭の里,カイゴロウジンホケンシセツ　ニワノサト,訪問リハビリテーション,宮城県大崎市古川江合本町２丁目２－５,,38.588953800000000,140.971652900000000,0229-21-8460,0229-21-8371,5390005005587,社会福祉法人千宏会,451580047,平日.土曜日.祝日,,0,http://www.niwanosato.com,,,,
44440,412810368,宮城県,色麻町,公立加美病院,コウリツカミビョウイン,訪問リハビリテーション,宮城県加美郡色麻町四竃字杉成9,,38.551972100000000,140.849110800000000,0229-66-2500,0229-66-2501,,加美郡保健医療福祉行政事務組合,412810368,平日,,,http://www.kamihp.jp/index.html,,,,
42021,450280086,宮城県,石巻市,介護老人保健施設　しおん,カイゴロウジンホケンシセツ　シオン,訪問リハビリテーション,宮城県石巻市吉野町1丁目7番1号,,38.426050900000000,141.317976700000000,0225-21-5155,0225-21-5156,6011405000058,医療法人社団　健育会,450280086,平日,,,http://shion.or.jp/,,,,
42021,410211569,宮城県,石巻市,医療法人社団　健育会　石巻健育会病院,イリョウホウジンシャダン　ケンイクカイ　イシノマキケンイクカイビョウイン,訪問リハビリテーション,宮城県石巻市大街道西三丁目3番27号,,38.431396200000000,141.271424800000000,0225-94-9195,0225-96-9866,,医療法人社団　健育会　石巻健育会病院,410211569,平日,,0,http://www.ishinomaki.gr.jp/,,,,
42021,410210017,宮城県,石巻市,石巻赤十字病院,イシノマキセキジュウジビョウイン,訪問リハビリテーション,宮城県石巻市蛇田字西道下71番地,,38.459215500000000,141.279759500000000,0225-21-7220,0225-96-0122,,日本赤十字社宮城県支部,410210017,平日,,10,http://www.ishinomaki.jrc.or.jp,,,,
42021,410212468,宮城県,石巻市,医療法人　啓仁会　石巻ロイヤル病院,イリョウホウジン　ケイジンカイ　イシノマキロイヤルビョウイン,訪問リハビリテーション,宮城県石巻市広渕字焼巻２番地,,38.471526000000000,141.213608700000000,0225-73-5888,0225-73-2838,,医療法人　啓仁会石巻ロイヤル病院,410212468,平日.土曜日.祝日,ただし、年末年始（12月30日～1月3日）は休業,0,http://www.wam-town.jp/ishinomaki/,,,,
42021,470201690,宮城県,石巻市,仁明会訪問リハビリステーション山下,ジンメイカイホウモンリハビリステーションヤマシタ,訪問リハビリテーション,石巻市山下町一丁目７番２４号（齋藤病院内）,,38.430385700000000,141.293001100000000,0225-23-4228,0225-96-5567,,医療夫人　社団　仁明会,470201690,平日.土曜日,土曜日の営業日は不定期で、休みの振替等で実施する。,84,,,,,
42030,410310171,宮城県,塩竈市,公益財団法人　宮城厚生協会　坂総合病院,コウエキザイダンホウジン　ミヤギコウセイキョウカイ　サカソウゴウビョウイン,訪問リハビリテーション,宮城県塩釜市錦町16-5,,38.306624100000000,141.015497900000000,022-367-9023,022-367-9023,9370605000630,公益財団法人宮城厚生協会,410310171,平日,,0,http://www.m-kousei.com/saka/,,,,
42030,410310023,宮城県,塩竈市,塩竈市立病院,シオガマシリツビョウイン,訪問リハビリテーション,宮城県塩竈市香津町7-1,,38.311215200000000,141.014756000000000,022-364-5521,022-364-5529,,塩竈市立病院,410310023,平日,,0,http://www.city-hospital-shiogama.jp/,,,,
42056,470501040,宮城県,気仙沼市,気仙沼訪問リハビリステーション,ケセンヌマホウモンリハビリステーション,訪問リハビリテーション,宮城県気仙沼市赤岩港321-1,,38.885513460280000,141.577973669603000,0226-25-8323,0226-25-8324,6011005005069,一般財団法人訪問リハビリテーション振興財団,470501040,平日.土曜日.祝日,,0,http://www.hvrpf.jp,,,,
42056,410510929,宮城県,気仙沼市,気仙沼市立本吉病院,ケセンヌマシリツモトヨシビョウイン,訪問リハビリテーション,宮城県気仙沼市本吉町津谷明戸222-2,,38.787976830311900,141.501999892590000,0226-42-2621,0226-42-2625,,気仙沼市立本吉病院,410510929,平日,なし,0,http://www.kesennuma.miyagi.jp/mt-hospital/,,,,
42072,450780036,宮城県,名取市,介護老人保健施設なとり,カイゴロウジンホケンシセツナトリ,訪問リハビリテーション,宮城県名取市高舘熊野堂字岩口下1-2,,38.197480300000000,140.846085200000000,022-386-3770,022-386-3788,5420005002721,医療法人　仁泉会,450780036,平日,年末年始（12/29～1/3）は休業,0,http://www.sg-natori.jp/,,,,
42072,410710610,宮城県,名取市,医療法人社団爽秋会　岡部医院,イリョウホウジンシャダンソウシュウカイ　オカベイイン,訪問リハビリテーション,宮城県名取市植松一丁目１番２４号,,38.153068900000000,140.882623500000000,022-381-1236,022-381-1256,6370805000276,医療法人社団爽秋会,410710610,平日,,25,http://www.soshukai.jp/,,,,
42081,450880018,宮城県,角田市,介護老人保健施設ゆうゆうホーム,カイゴロウジンホケンシセツユウユウホーム,訪問リハビリテーション,角田市角田字田町114-9,,37.973729800000000,140.786356600000000,0224-62-4866,0224-62-4868,7370105001107,医療法人金上仁友会,450880018,平日,,0,http://www.kanagami.or.jp,,,,
42111,411110273,宮城県,岩沼市,総合南東北病院,ソウゴウミナミトウホクビョウイン,訪問リハビリテーション,宮城県岩沼市里の杜1-2-5,,38.109111300000000,140.877031900000000,0223-23-3151,0223-23-3150,4370805000121,社会医療法人将道会,411110273,平日,平日の利用時間は（改行）午前9：00～12：00（改行）午後13：30～16：30,92,http://www.minamitohoku.jp/,,,,
42137,451380026,宮城県,栗原市,介護老人保健施設　グレイスガーデン,カイゴロウジンホケンシセツ　グレイスガーデン,訪問リハビリテーション,宮城県栗原市若柳字福岡谷地畑浦35,,38.783654700000000,141.117026400000000,0228-32-7730,0228-32-7737,,医療法人　財団弘慈会,451380026,平日.祝日,,0,http://www.kojikai.jp,,,,
42137,411310220,宮城県,栗原市,公益財団法人宮城厚生協会くりこまクリニック,コウエキザイダンホウジンミヤギコウセイキョウカイクリコマクリニック,訪問リハビリテーション,宮城県栗原市栗駒岩ケ崎上小路153,,38.831584865340900,140.989965133730000,0228-45-2128,0228-45-3245,,公益財団法人宮城厚生協会,411310220,平日,月曜～木曜日：14時00分～17時00分（改行）金曜日：9時00分～17時00分（改行）その他個別対応あり。,0,,,,,
42137,411310436,宮城県,栗原市,栗原市立若柳病院,クリハラシリツワカヤナギビョウイン,訪問リハビリテーション,宮城県栗原市若柳字川北原畑２３－４‐,‐,38.770101000000000,141.138119200000000,0228-32-2335,0228-32-5550,,栗原市,411310436,平日,‐,0,http://www.wakayanagi-hp.jp,,,,
42145,411410350,宮城県,東松島市,北原ライフサポートクリニック東松島,キタハラライフサポートクリニックヒガシマツシマ,訪問リハビリテーション,宮城県東松島市川下字内響132-32,,38.408624691406900,141.135909511114000,0225-86-1181,0225-86-1181,,医療法人社団KNI,411410350,平日,－,21,http://www.kitaharahosp.com/higashimatsushima/,,,,
42145,411410111,宮城県,東松島市,医療法人　医徳会　真壁病院,イリョウホウジン　イトクカイ　マカベビョウイン,訪問リハビリテーション,宮城県東松島市矢本字鹿石前１０９－４,,38.403367700000000,141.188559500000000,０２２５－８２－７１１１,０２２５－８２－７１４９,,医療法人　医徳会,411410111,平日.土曜日,,0,http://www.itokukai.or.jp/,,,,
43249,452280019,宮城県,川崎町,アルパイン川崎,アルパインカワサキ,訪問リハビリテーション,宮城県柴田郡川崎町大字前川字北原59-6,,38.182602300000000,140.629464300000000,0224-84-6121,0224-84-6868,9370005001221,医療法人社団　光友会,452280019,平日,,0,http://www.matsuda-hp.com/matsuda/１alpine.html,,,,
44067,452680028,宮城県,利府町,利府仙台ロイヤルケアセンター,リフセンダイロイヤルケアセンター,訪問リハビリテーション,宮城県宮城郡利府町新中道二丁目1番地1,,38.325412000000000,140.975114000000000,022-356-0355,022-356-0533,4011405000068,財団　明理会,452680028,平日.土曜日.祝日,上記の時間以外は要相談,45,http://www.ims.gr.jp/rifuroyalcare/,,,,
44067,412610651,宮城県,利府町,ゆうファミリークリニック　訪問リハビリテーション,ユウファミリークリニック　ホウモンリハビリテーション,訪問リハビリテーション,宮城県宮城郡利府町利府字新館2-5ゆうファミリークリニック,ゆうファミリークリニック,38.331831400000000,140.976686700000000,022-766-4141,022-766-4181,,医療法人慈裕会　ゆうファミリークリニック,412610651,平日.土曜日,,60,www.yu-family-clinic.com/,,,,
42161,451680011,宮城県,富谷市,介護老人保健施設　富谷の郷,カイゴロウジンホケンシセツ　トミヤノサト,訪問リハビリテーション,宮城県富谷市三ノ関坂ノ下116番3号,,38.406965800000000,140.892264800000000,022-745-5333,022-341-6541,2010005014562,公益社団法人地域医療振興協会,451680011,平日,,0,https://tmst.jp/,,,,
42153,411511355,宮城県,大崎市,医療法人　社団　慈篤会　三浦病院,イリョウホウジン　シャダン　ジトクカイ　ミウラビョウイン,訪問リハビリテーション,宮城県大崎市古川三日町二丁目３番４５号,,38.572986100000000,140.955758100000000,0229-22-6656,0229-22-6655,7370005009258,医療法人　社団　慈篤会　三浦病院,411511355,平日,平日午後のみ実施。,0,http.//www.miurahp.jp,,,,
42153,411511074,宮城県,大崎市,医療法人　心の郷　穂波の郷クリニック　訪問リハビリテーション,イリョウホウジン　ココロノサト　ホナミノサトクリニック　ホウモンリハビリテーション,訪問リハビリテーション,宮城県大崎市古川穂波３丁目30番12号,,38.564447200000000,140.940920700000000,0229－25－5811,0229－25－5812,,医療法人　心の郷　訪問リハビリテーション,411511074,平日.土曜日.祝日,午前営業　月・水・土曜日　９時～１２時３０分（改行）午後営業　月～土曜日　１３時３０分～１７時３０分,10,http://www.cocoronosato.net/,,,,
42153,411510126,宮城県,大崎市,公益財団法人宮城厚生協会古川民主病院,コウエキザイダンホウジンミヤギコウセイキョウカイフルカワミンシュビョウイン,訪問リハビリテーション,宮城県大崎市古川駅東2-11-14,,38.573219700000000,140.974308900000000,0229--23-5521,0229-24-1544,9370605000630,公益財団法人宮城厚生協会,411510126,平日,盆休(8月16日)、年末年始休暇(12月30日～1月3日)を除く,0,https://www.m-kousei.com/furukawa/,,,,
42153,411510068,宮城県,大崎市,一般財団法人　片倉病院,イッパンザイダンホウジン　カタクラビョウイン,訪問リハビリテーション,宮城県大崎市古川浦町1-37,,38.577911261038900,140.957481005523000,0229-22-0016,0229-24-1226,,一般財団法人　片倉病院,411510068,平日.土曜日,,0,http://katakura-hospital.com/,,,,
42153,411510027,宮城県,大崎市,大崎市民病院鹿島台分院,オオサキシミンビョウインカシマダイブンイン,訪問リハビリテーション,宮城県大崎市鹿島台平渡字東要害20番地大崎市民病院鹿島台分院,大崎市民病院鹿島台分院,38.479304900000000,141.098029400000000,0229-56-2611,0229-56-2035,,大崎市病院事業,411510027,平日,,,http://www.h-osaki.jp/kashimadai/,,,,
42129,451280036,宮城県,登米市,南方ナーシングホーム翔裕園,ミナミカタナーシングホームショウユウエン,訪問リハビリテーション,宮城県登米市南方町山成前791-1,,38.657366300000000,141.150214600000000,0220-58-5455,0220-58-5456,2030005009734,元気村,451280036,平日.祝日,年末年始（12月30日から1月3日）はお休み,0,http://www.genkimuragroup.jp/genkimura/minamikata-nh/,,,,
42137,451380018,宮城県,栗原市,介護老人保健施設　高森ロマンホーム,カイゴロウジンホケンシセツ　タカモリロマンホーム,訪問リハビリテーション,宮城県栗原市築館字下高森124-1,,38.715981700000000,140.984322300000000,0228-22-3922,0228-22-3988,5370205001512,医療法人社団畑山医院,451380018,平日.土曜日.祝日,訪問リハビリテーション事業所の営業時間は月曜日から土曜日まで（改行）8：30-17：30まで。,25,https://www.hatayamaclinic.com,,,,
42137,411310600,宮城県,栗原市,令和クリニック,レイワクリニック,訪問リハビリテーション,宮城県栗原市若柳字川南上堤９０－３,,38.775060100000000,141.119055600000000,0228-32-5430,0228-32-5410,,令和クリニック,411310600,平日,,,http://reiwa-clinic.org,,,,
43419,452380017,宮城県,丸森町,丸森ロイヤルケアセンター　訪問リハビリテ－ション,マルモリロイヤルケアセンター　ホウモンリハビリテ-ション,訪問リハビリテーション,宮城県伊具郡丸森町字鳥屋９－２丸森ロイヤルケアセンター,丸森ロイヤルケアセンター,37.913273500000000,140.766114100000000,0224-73-1101,0224-73-1155,4011405000068,医療法人財団明理会　丸森ロイヤルケアセンター,452380017,平日.土曜日.祝日,定休日　日曜　12月31日～1月3日,16,http://www.ims.gr.jp/marumori-royal/,,,,
44211,412710360,宮城県,大和町,公立黒川病院,コウリツクロカワビョウイン,訪問リハビリテーション,宮城県黒川郡大和町吉岡字西桧木60番地,,38.437428700000000,140.889317200000000,022-345-3101,022-345-3143,,黒川地域行政事務組合理事会,412710360,平日.土曜日,,0,http://www.jadecom.or.jp/jadecomhp/kurokawa/html/,,,,
42161,411610207,宮城県,富谷市,仙台リハビリテーション病院訪問リハビリテーション事業所,センダイリハビリテーションビョウインホウモンリハビリテーションジギョウショ,訪問リハビリテーション,宮城県富谷市成田１－３－１,,38.366534500000000,140.890986900000000,022-351-8118,022-351-8126,,医療法人社団脳健会,411610207,平日,なし,0,http://www.sendai-reha.or.jp,,,,
45811,473500189,宮城県,女川町,女川町地域医療センター,オナガワチョウチイキイリョウセンター,訪問リハビリテーション,宮城県牡鹿郡女川町鷲神浜字堀切山107-1,,38.443414200000000,141.445232500000000,0225-53-5511,0225-53-5521,2010005014562,公益社団法人　地域医療振興協会,473500189,平日,,0,http://onagawahp.jadecom.or.jp,,,,
42153,411510076,宮城県,大崎市,一般財団法人　佐藤病院,イッパンザイダンホウジン　サトウビョウイン,訪問リハビリテーション,宮城県大崎市古川中里1-3-18,,38.574108100000000,140.960801800000000,0229-22-0207,0229-22-0514,,一般財団法人　佐藤病院,411510076,平日,,0,http://www.sato-hpz.or.jp/,,,,
41017,475103867,宮城県,仙台市青葉区,せんだんの丘訪問リハビリステーション,センダンノオカホウモンリハビリステーション,訪問リハビリテーション,宮城県仙台市青葉区国見ケ丘6丁目126-51,,38.283957900000000,140.834394200000000,022-727-7722,022-727-7727,,医療法人社団　東北福祉会,475103867,平日.祝日,※居宅サービス提供により、休業日及び営業時間外であってもサービス提供する場合があります。,,,,,,
41017,415117878,宮城県,仙台市青葉区,岡部医院仙台,オカベイインセンダイ,訪問リハビリテーション,宮城県仙台市青葉区柏木2-4-76ガーデンテラス柏木106,ガーデンテラス柏木106,38.273853400000000,140.855683600000000,022-341-2802,022-341-2803,6370805000276,医療法人社団爽秋会,415117878,平日,,25,http://www.soshukai.jp/,,,,
41017,455180026,宮城県,仙台市青葉区,国見ナーシングホーム翔裕園,クニミ　ナーシングホーム　ショウユウエン,訪問リハビリテーション,宮城県仙台市青葉区国見6-84-1,,38.282870400000000,140.828411500000000,022-718-5261,022-718-5221,,元気村,455180026,平日.祝日,午前の部　午前9：00～12：30（改行）午後の部　午後13：30～17：30,15,https://www.genkimuragroup.jp/genkimura/kunimi-nh/,,,,
41017,455180091,宮城県,仙台市青葉区,介護老人保健施設メープル小田原,カイゴロウジンホケンシセツ　メープルオダワラ,訪問リハビリテーション,宮城県仙台市青葉区小田原8-6-22,,38.270922600000000,140.892828000000000,022-267-5121,022-267-5122,5370005001225,社会医療法人　康陽会,455180091,平日.土曜日,年末年始　12/31～1/3まで休み,0,https://maple34.wixsite.com./mysite,,,,
41017,455180067,宮城県,仙台市青葉区,介護老人保健施設　仙台青葉ロイヤルケアセンター,カイゴロウジンホケンシセツ　センダイアオバ,訪問リハビリテーション,宮城県仙台市青葉区吉成台二丁目3番20号,,38.296338700000000,140.826652700000000,022-303-3911,022-303-3912,4011405000068,医療法人財団明理会,455180067,平日.土曜日.祝日,,,http://www.ims.gr.jp/sendaiaoba-royal/,,,,
41025,475203386,宮城県,仙台市宮城野区,医療法人松田会介護老人保健施設エバーグリーン・ツルガヤ,イリョウホウジンマツダカイカイゴロウジンホケンシセツエバーグリーン・ツルガヤ,訪問リハビリテーション,宮城県仙台市宮城野区鶴ヶ谷字館下35番地の1,,38.296949200000000,140.919918000000000,050-3387-4124,022-251-1773,,医療法人　松田会,475203386,平日,,0,http://matsuda-hp.com/matsuda/egt/,,,,
41025,455280024,宮城県,仙台市宮城野区,介護老人保健施設けやき,カイゴロウジンホケンシセツ　ケヤキ,訪問リハビリテーション,宮城県仙台市宮城野区大梶１５－２７,,38.272297400000000,140.906774900000000,022-257-2020,022-257-2706,5370005001225,社会医療法人　康陽会,455280024,平日.土曜日,連休（祝日）は応相談,,http://keyaki-kouyoukai.jp/,,,,
41025,455280016,宮城県,仙台市宮城野区,介護老人保健施設　コジーケアホーム,カイゴロウジンホケンシセツ　コジーケアホーム,訪問リハビリテーション,宮城県仙台市宮城野区岩切字稲荷１４,,38.300769569868000,140.939021214156000,022-255-2525,022-255-2528,5370005001225,社会医療法人　康陽会,455280016,平日.土曜日,,36,https://cozycarehome.com/,,,,
41041,415413178,宮城県,仙台市太白区,仙台クローバークリニック,センダイクローバークリニック,訪問リハビリテーション,宮城県仙台市太白区あすと長町1-2-1長町メディカルプラザ３Ｆ,長町メディカルプラザ３Ｆ,38.231094100000000,140.887749700000000,022-797-5164,022-797-5174,,和康会,415413178,平日.土曜日,平日(水曜・土曜除)13:30～18:00も利用可能,0,http://www.sendai968.jp/,,,,
41041,475403945,宮城県,仙台市太白区,医療法人松田会　介護老人保健施設　エバーグリーン・ヤギヤマ,イリョウホウジンマツダカイカイゴロウジンホケンシセツエバーグリーン・ヤギヤマ,訪問リハビリテーション,宮城県仙台市太白区八木山香澄町1-20,,38.246472900000000,140.865415200000000,022-393-8543,022-217-7655,,医療法人松田会,475403945,平日,特になし,,http://www.matsuda-hp.com,,,,
41041,415410471,宮城県,仙台市太白区,公益財団法人宮城厚生協会　長町病院,コウエキザイダンホウジンミヤギコウセイキョウカイナガマチビョウイン,訪問リハビリテーション,宮城県仙台市太白区長町３－７－２６,,38.229641406332800,140.883841535643000,022-746-5161,022-746-5142,9370605000630,公益財団法人宮城厚生協会,415410471,平日,,45,http://www.m-kousei.com/nagamati/index.htm,,,,
41041,455480012,宮城県,仙台市太白区,介護老人保健施設　茂庭台豊齢ホーム,カイゴロウジンホケンシセツ　モニワダイホウレイホーム,訪問リハビリテーション,宮城県仙台市太白区茂庭台二丁目１６番１０号,,38.232997200000000,140.783045300000000,022-281-3190,022-281-3194,1370005003150,仙台市医療センター,455480012,平日,,0,http://www.hourei.com,,,,
41050,475503876,宮城県,仙台市泉区,医療法人松田会　介護老人保健施設　エバーグリーン・イズミ,イリョウホウジンマツダカイ　カイゴロウジンホケンシセツ　エバーグリーン・イズミ,訪問リハビリテーション,仙台市泉区実沢字立田屋敷17番地の1,,38.334470100000000,140.838590800000000,022-378-8877,022-342-6222,,医療法人松田会,475503876,平日.土曜日,,0,http://www.matsuda-hp.com/,,,,
41050,415511773,宮城県,仙台市泉区,いずみの杜診療所,イズミノモリシンリョウジョ,訪問リハビリテーション,宮城県仙台市泉区松森字下町８番地の１,,38.316599800000000,140.914564600000000,022-772-9801,022-772-9802,,医療法人社団清山会,415511773,平日.祝日,,50,http://www.izuminomori.jp/,,,,
41017,415112788,宮城県,仙台市青葉区,医療法人財団明理会　西仙台病院　訪問リハビリテーション,イリョウホウジンザイダンメイリカイ　ニシセンダイビョウイン　ホウモンリハビリテーション,訪問リハビリテーション,宮城県仙台市青葉区芋沢字新田54-4,,38.275588400000000,140.743251900000000,022-394-5721,022-394-7286,4011405000068,医療法人財団明理会,415112788,平日.土曜日.祝日,,0,http://www.ims.gr.jp/nishisendai-hp/,,,,
41017,415117472,宮城県,仙台市青葉区,周行会上杉クリニック　在宅リハケアセンター,シュウコウカイカミスギクリニック　ザイタクリハケアセンター,訪問リハビリテーション,宮城県仙台市青葉区上杉二丁目3番3号ノースフォービル2F,ノースフォービル2F,38.272792700000000,140.869783200000000,022-226-7785,022-226-7786,8370005000199,一般財団法人　周行会,415117472,平日,兼務体制のため、曜日と時間などはご相談させていただいております。,15,http://www.shukokai.or.jp/nursing/rehacare,,,,
41017,415114123,宮城県,仙台市青葉区,医療法人　広愛会　松原医院　訪問リハビリステーション敬寿園,イリョウホウジンシャダン　コウアイカイ　マツバライイン　ホウモンリハビリステーションケイジュエン,訪問リハビリテーション,愛子東2丁目３－６３,,38.273161600000000,140.773988900000000,022-392-3111,022-392-2694,,広愛会,415114123,平日.土曜日,木曜は９：００～１２：３０が営業時間となります。（改行）上記の営業日、営業時間の他、利用者より求めがあった場合にはその限りではありません。,,https://www.matsubaraiin.com,,,,
41050,415511393,宮城県,仙台市泉区,医療法人泉整形外科病院訪問リハビリテーション,イリョウホウジンイズミセイケイゲカビョウインホウモンリハビリテーション,訪問リハビリテーション,宮城県仙台市泉区上谷刈字丸山6番1号,,38.311909833879700,140.867746201805000,090-7324-6854,022-374-2481,7370005001149,医療法人泉整形外科病院,415511393,平日,午前8時30分より午後6時00分までに移動終了となるため、移動時間を考慮するものとする。,30,,,,,
41050,415512706,宮城県,仙台市泉区,白木原クリニック,シラキハラクリニック,訪問リハビリテーション,宮城県仙台市泉区南光台７丁目１－９６,,38.299370079991400,140.898285770502000,227398230,227398232,,白木原クリニック,415512706,平日.土曜日,年末年始の５日間、お盆期間の５日間を除く。（改行）（設定日は暦年により変動）（改行）クリニック内でのリハビリ状況により対応できない曜日、時間帯があります。,,http://shirakihara-clinic.jp/,,,,
41050,415510445,宮城県,仙台市泉区,宮城厚生協会　泉病院,ミヤギコウセイキョウカイ　イズミビョウイン,訪問リハビリテーション,仙台市泉区長命ヶ丘2丁目1-1,,38.316978842053100,140.843981517197000,022-378-5361,022-378-5709,9370605000630,公益財団法人　宮城厚生協会,415510445,平日,土日祝日、8月16日、12月30日～1月3日　は休業。（改行）ただし、身体機能や状況によっては振り替え利用を検討する場合がある。,20,http://www.m-kousei.com/izumi,,,,
52019,570115592,秋田県,秋田市,介護老人保健施設かみの里,カイゴロウジンホケンシセツカミノサト,訪問リハビリテーション,秋田県秋田市上北手百崎字ニタ子沢１－６,,39.689543900000000,140.154372100000000,018-889-6294,018-829-3767,,社会福祉法人成光会,570115592,平日,特になし,,http://www.kaminosato.or.jp/,,,,
52159,511210163,秋田県,仙北市,仙北市国民健康保険神代診療所,センボクシコクミンケンコウホケンジンダイシンリョウショ,訪問リハビリテーション,秋田県仙北市田沢湖神代字野中清水216番地4,,39.625485100000000,140.596433500000000,0187-44-2118,0187-44-2215,,仙北市国民健康保険神代診療所,511210163,平日,,,,,,,
52019,570125500,秋田県,秋田市,千秋苑訪問リハビリテーション,センシュウエンホウモンリハビリテーション,訪問リハビリテーション,秋田県秋田市外旭川字神田592番地,,39.751244091707200,140.118619886508000,018-868-1355,018-868-5333,5410005000635,社会福祉法人憲寿会,570125500,平日.祝日,,0,http://www.kenjukai-senshuen.jp,,,,
52043,570426007,秋田県,大館市,大館園訪問リハビリテーション事業所,オオダテエンホウモンリハビリテーションジギョウショ,訪問リハビリテーション,秋田県大館市芦田子字芦田子南275番地,,40.299183300000000,140.598625400000000,0186-48-5777,0186-48-2289,7410005002919,医療法人光智会,570426007,平日,,,http://www.kochikai.jp/,,,,
52019,510115728,秋田県,秋田市,医療法人　惇慧会　外旭川サテライトクリニック,イリョウホウジン　ジュンケイカイ　ソトアサヒカワサテライトクリニック,訪問リハビリテーション,秋田市外旭川字中谷地４６,,39.755520400000000,140.099290500000000,018-868-5718,018-868-5531,6410005000535,医療法人　惇慧会　外旭川サテライトクリニック,510115728,平日,,0,http://www.jkk-sotohp.or.jp,,,,
52019,570126227,秋田県,秋田市,なぎさ訪問リハビリテーション,ナギサホウモンリハビリテーション,訪問リハビリテーション,秋田県秋田市土崎港中央四丁目4ー23,,39.753225400000000,140.072026300000000,018－845-3526,018－845-3560,9410005000508,医療法人運忠会,570126227,平日,,,https://www.tsuchizakihp.or.jp/nagisa/,,,,
52060,570625806,秋田県,男鹿市,訪問リハビリテーション　たらちね,ホウモンリハビリテーション　タラチネ,訪問リハビリテーション,秋田県男鹿市船越字一向67-1,,39.898069800000000,139.948746000000000,0185-22-6660,0185-22-6659,7410005001714,医療法人社団　柔心会,570625806,平日,,0,http://www.jusinkai.or.jp,,,,
52108,570508333,秋田県,由利本荘市,訪問リハビリテーション　ひまわりの里,ホウモンリハビリテーション　ヒマワリノサト,訪問リハビリテーション,秋田県由利本荘市浜三川字小山口２０番地,,39.415998200000000,140.034209800000000,0184-27-1133,0184-27-1136,9410005002157,社会福祉法人　本荘久寿会,570508333,平日.土曜日.祝日,,0,http://www.kaigo-himawari.com/,,,,
53619,552380057,秋田県,五城目町,介護老人保健施設　湖東老健,カイゴロウジンホケンシセツ　コトウロウケン,訪問リハビリテーション,秋田県南秋田郡五城目町字上町284-1,,39.947588700000000,140.125007600000000,018-855-1570,018-855-1555,1410005001364,医療法人　正和会,552380057,平日.土曜日,,,http://www.seiwakai-net.com,,,,
52043,570419044,秋田県,大館市,成寿苑指定訪問リハビリテーション事業所,セイジュエンシテイホウモンリハビリテーションジギョウショ,訪問リハビリテーション,秋田県大館市釈迦内字狼穴７９番地,,40.311964300000000,140.572793500000000,0186-48-4975,0186-45-2115,9410005003576,社会福祉法人成寿会,570419044,平日.土曜日.日曜日.祝日,,0,http://seijuen.or.jp/,,,,
52035,510311343,秋田県,横手市,市立大森病院,シリツオオモリビョウイン,訪問リハビリテーション,秋田県横手市大森町字菅生田245番地205,,39.351103100000000,140.416414500000000,0182-26-2141,0182-26-2395,,横手市,510311343,平日,,0,http://www.oomorihp.jp/,,,,
52035,510311079,秋田県,横手市,雄物川クリニック,オモノガワクリニック,訪問リハビリテーション,横手市雄物川町今宿字棒突44-1,,39.291930500000000,140.431039800000000,0182-22-5511,0182-22-5801,,鈴木　道郎,510311079,平日.土曜日,,0,http://www.omonogawaclinic.com,,,,
52035,570320986,秋田県,横手市,りんごの里福寿園　訪問リハビリセンター,リンゴノサトフクジュエン　ホウモンリハビリセンター,訪問リハビリテーション,秋田県横手市増田町吉野字梨木塚100-1番地,,39.201688400000000,140.582021800000000,0182-45-3131,0182-45-3300,6410005005245,社会福祉法人横手福寿会,570320986,平日,,0,http://yokote-fukuzyukai.jp,,,,
52019,570121871,秋田県,秋田市,三楽園訪問リハビリテーション,サンラクエンホウモンリハビリテーション,訪問リハビリテーション,秋田県秋田市飯島字堀川８４番地２０,,39.791621485457000,140.060936163090000,018-857-3101,018-857-3131,6410005000519,医療法人久盛会,570121871,平日.土曜日.日曜日.祝日,,0,http://www.kyusei.or.jp/sanrakuen/,,,,
52019,570112656,秋田県,秋田市,遊心苑訪問リハビリテーション事業所,ユウシンエンホウモンリハビリテーションジギョウショ,訪問リハビリテーション,秋田県秋田市添川字境内川原１９６番地１,,39.752657900000000,140.133142800000000,018-831-3666,018-831-3560,3410005000653,社会福祉法人　遊心苑,570112656,平日.祝日,,0,http://www.yushinen.or.jp/,,,,
52019,510112147,秋田県,秋田市,御野場病院,オノバビョウイン,訪問リハビリテーション,秋田市御野場２丁目　１４－１,,39.673589600000000,140.131630200000000,018-839-6141,018-839-5025,6410005000543,医療法人　正観会,510112147,平日,,0,http://www.seikankai.or.jp/,,,,
52019,510114374,秋田県,秋田市,今村記念クリニック訪問リハビリテーション,イマムラキネンクリニックホウモンリハビリテーション,訪問リハビリテーション,秋田市下新城長岡字毛無谷地265,,39.805542000000000,140.060571400000000,018-872-1313,018-872-1312,4410005000520,医療法人　久幸会,510114374,土曜日,日、祝祭日、年末年始12/30～1/3は休み,0,http://www.kyukokai.com/,,,,
52019,570116970,秋田県,秋田市,桜の園訪問リハビリテーション,サクラノソノホウモンリハビリテーション,訪問リハビリテーション,秋田市下北手梨平字登館８番地,,39.702117600000000,140.161590500000000,018-839-5977,018-839-5971,5410005000627,社会福祉法人桜丘会,570116970,平日,特になし,,http://www.oukyukai.net/,,,,
52019,510112576,秋田県,秋田市,中通リハビリテーション病院,ナカドオリリハビリテーションビョウイン,訪問リハビリテーション,秋田市中通六丁目１番５８号,,39.713485586025600,140.122391410451000,018-884-3038,018-884-3038,7410005000567,社会医療法人　明和会,510112576,平日,,,http://www.meiwakai.or.jp,,,,
52124,510811342,秋田県,大仙市,社会医療法人明和会　大曲中通病院,シャカイイリョウホウジンメイワカイ　オオマガリナカドオリビョウイン,訪問リハビリテーション,秋田県大仙市大曲上栄町６番４号,,39.451202300000000,140.476381400000000,0187-63-2131,0187-63-3901,7410005000567,社会医療法人　明和会,510811342,平日,,0,http://www.meiwakai.or.jp/omagari/,,,,
52108,510510662,秋田県,由利本荘市,由利本荘医師会病院訪問リハビリテーション,ユリホンジョウイシカイビョウインホウモンリハビリテーション,訪問リハビリテーション,秋田県由利本荘市水林456番地4,,39.377801400000000,140.025670500000000,0184-22-0054,0184-22-6738,9410005002058,一般社団法人　由利本荘医師会,510510662,平日.土曜日.祝日,,0,http://honyui.jp/,,,,
52159,571216100,秋田県,仙北市,介護老人保健施設　田沢の郷,カイゴロウジンホケンシセツ　タザワノサト,訪問リハビリテーション,秋田県仙北市田沢湖生保内字上清水698番地,,39.699426854371300,140.715719052115000,0187-58-0112,0187-58-0022,4410005004851,社会福祉法人　こまくさ苑,571216100,平日.祝日,,0,http://www.tazawanosato.jp,,,,
52027,510210834,秋田県,能代市,独立行政法人地域医療機能推進機構秋田病院,ドクリツギョウセイホウジンチイキイリョウキノウスイシンキコウアキタビョウイン,訪問リハビリテーション,秋田県能代市緑町5-22,,40.198252700000000,140.035112500000000,0185-52-3271,0185-54-7892,6040005003798,独立行政法人地域医療機能推進機構,510210834,平日,,0,http://akita.jcho.go.jp,,,,
52035,550380018,秋田県,横手市,やすらぎ訪問リハビリテーション,ヤスラギホウモンリハビリテーション,訪問リハビリテーション,秋田県横手市杉沢字中杉沢400番地,,39.351018300000000,140.565034200000000,0182-33-4001,0182-33-6644,6410005004908,社会医療法人興生会,550380018,平日,,,http://www.kohseikai.com,,,,
52116,511010167,秋田県,潟上市,医療法人正和会　小玉医院,イリョウホウジンセイワカイ　コダマイイン,訪問リハビリテーション,秋田県潟上市昭和大久保字街道下96-8,,39.870170400000000,140.061726800000000,018-877-2040,018-877-2300,1410005001364,医療法人正和会　小玉医院,511010167,平日.土曜日,,0,http://www.seiwakai-net.com,,,,
52124,570821124,秋田県,大仙市,なごみ訪問リハビリテーション,ナゴミホウモンリハビリテーション,訪問リハビリテーション,大仙市大曲船場町１丁目１番4号,,39.457937600000000,140.471448400000000,0187-86-0511,0187-86-0505,7410005005500,社会福祉法人あけぼの会,570821124,平日,,0,http://www.nagomi-a.jp/,,,,
52108,570526715,秋田県,由利本荘市,あまさぎ園訪問リハビリテーション,アマサギエンホウモンリハビリテーション,訪問リハビリテーション,秋田県由利本荘市岩城冨田字根本9-3,,39.505542700000000,140.086635200000000,0184-62-5001,0184-62-5010,8410005002158,社会福祉法人　久盛会,570526715,平日,,10,http://www.amasagi.or.jp,,,,
52108,510511041,秋田県,由利本荘市,加賀医院,カガイイン,訪問リハビリテーション,秋田県由利本荘市鳥海町伏見字久保12-9,,39.191780100000000,140.192662400000000,0184-27-6541,0184-27-6542,1410005002362,医療法人章進会,510511041,平日.土曜日.祝日,訪問時間は2単位（40分）を想定しています。,0,,,,,
52094,570925115,秋田県,鹿角市,いこいの里訪問リハビリセンター,イコイノサトホウモンリハビリセンター,訪問リハビリテーション,秋田県鹿角市八幡平字小山５０番地,,40.140095200000000,140.802568900000000,0186-32-3330,0186-32-2220,2410005003434,医療法人　翠峰会,570925115,平日,,0,https://suihoukai-ikoinosato.com/,,,,
52094,510910474,秋田県,鹿角市,大湯リハビリ温泉病院,オオユリハビリオンセンビョウイン,訪問リハビリテーション,秋田県鹿角市十和田大湯字湯ノ岱１６番地２,,40.298902200000000,140.840428900000000,0186-37-3511,0186-37-3483,9410005003436,医療法人楽山会,510910474,平日,,0,http://www.ink.or.jp/~oyu-reha/,,,,
