都道府県コード又は市町村コード,No,都道府県名,市区町村名,事業所名,事業所名カナ,サービスの種類,住所,方書（ビル名等）,緯度,経度,電話番号,FAX番号,法人番号,法人の名称,事業所番号,利用可能曜日,利用可能曜日特記事項,定員,URL,高齢者の方と障害者の方が同時一体的に利用できるサービス,介護保険サービスの指定状況,障害福祉サービスの指定状況,備考
11070,150480093,北海道,札幌市西区,医療法人タナカメディカル　介護療養型老人保健施設　博友会,イリョウホウジンタナカメディカルカイゴリョウヨウガタロウジンホケンシセツハクユウカイ,短期入所療養介護（介護老人保健施設）,札幌市西区西野2条7丁目1番1号,,43.080509800000000,141.276595900000000,011-661-1850,011-666-7933,,医療法人タナカメディカル,150480093,,,,http://www.tanakamedical.net/hakuyu/,,,,
12122,156480022,北海道,留萌市,医療法人社団心優会　介護老人保健施設　季実の杜,イリョウホウジンシャダンシンユウカイ　カイゴロウジンホケンシセツ　キミノモリ,短期入所療養介護（介護老人保健施設）,留萌市開運町１丁目５番１号,,43.940317700000000,141.648216900000000,0164-43-4400,0164-43-4407,,医療法人社団　心優会,156480022,,,,http://www.shinyukai-r.or.jp/,,,,
12131,153680020,北海道,苫小牧市,老人保健施設　みどりの苑,ロウジンホケンシセツ　ミドリノソノ,短期入所療養介護（介護老人保健施設）,苫小牧市字樽前234番地の6,,42.595545000000000,141.426989700000000,0144-67-6820,0144-67-6821,,社会福祉法人　緑陽会,153680020,,,,,,,,
11088,150380046,北海道,札幌市厚別区,厚別老人保健施設ディ・グリューネン,アツベツロウジンホケンシセツ　ディ・グリューネン,短期入所療養介護（介護老人保健施設）,札幌市厚別区下野幌38-18,,43.039333000000000,141.502172800000000,011-898-5580,011-898-6760,,医療法人　東札幌病院,150380046,,,,http://www.d-grunen.com,,,,
12181,157280017,北海道,赤平市,介護老人保健施設　博寿苑,カイゴロウジンホケンシセツ　ハクジュエン,短期入所療養介護（介護老人保健施設）,北海道赤平市平岸新光町2丁目4番地,,43.542292800000000,142.117800400000000,0125-37-2001,0125-38-8382,,社会医療法人　博友会,157280017,,,,http://hakuyukai.or.jp/hakujuen,,,,
12131,153680087,北海道,苫小牧市,介護療養型老人保健施設かみや,カイゴリョウヨウガタロウジンホケンシセツカミヤ,短期入所療養介護（介護老人保健施設）,北海道苫小牧市桜木町２丁目２５番１号,,42.628119900000000,141.553838400000000,0144-71-1717,0144-71-2351,,医療法人社団苫仁会,153680087,,,0,http://www.mc-senjinkai.or.jp/,,,,
12041,152980108,北海道,旭川市,介護老人保健施設　ことぶき,カイゴロウジンホケンシセツ　コトブキ,短期入所療養介護（介護老人保健施設）,旭川市東旭川町上兵村35番地5,,43.780051400000000,142.438777100000000,0166-36-1940,0166-36-7320,,医療法人社団　旭川圭泉会病院,152980108,,,0,http://www.keisenkai.or.jp,,,,
12203,153280037,北海道,士別市,小規模老人保健施設　ボヌゥール,ショウキボロウジンホケンシセツ　ボヌゥール,短期入所療養介護（介護老人保健施設）,士別市東6条5丁目1番地,,44.177578300000000,142.400400800000000,0165-26-9033,,,医療法人社団　三愛会,153280037,,,,http://sanai-kai.or.jp/shisetsu_bonheur/satellite/,,,,
14257,157180027,北海道,上砂川町,上砂川町老人保健施設成寿苑,カミスナガワチョウロウジンホケンシセツセイジュエン,短期入所療養介護（介護老人保健施設）,北海道空知郡上砂川町字上砂川２２番地１６,,43.466681000000000,142.012511500000000,0125-62-5610,0125-62-4188,,上砂川町,157180027,,,0,http://www.town.kamisunagawa.hokkaido.jp/,,,,
15784,153680061,北海道,白老町,介護老人保健施設さくら（介護予防）短期入所療養介護,カイゴロウジンホケンシセツサクラ（カイゴヨボウ）タンキニュウショリョウヨウカイゴ,短期入所療養介護（介護老人保健施設）,字萩野７４番地,,42.515953900000000,141.300869400000000,0144-83-3127,0144-83-3128,,医療法人社団生田医院,153680061,,,83,ikutaclinic-2@blue.ocn.ne.jp,,,,
12220,156080020,北海道,三笠市,医療法人社団幾生会　介護老人保健施設　そらちの郷,イリョウホウジンシャダンイクセイカイ　カイゴロウジンホケンシセツ　ソラチノサト,短期入所療養介護（介護老人保健施設）,北海道三笠市岡山506番地8号,8号,43.239576387807600,141.803409975016000,01267-2-2116,01237-2-5738,6430005006687,医療法人社団幾生会,156080020,,,0,http://ikuseikai-hp.jp/,,,,
16624,154380034,北海道,厚岸町,厚岸町介護老人保健施設,アッケシチョウカイゴロウジンホケンシセツ,短期入所療養介護（介護老人保健施設）,北海道厚岸郡厚岸町住の江1丁目1番地,,43.057492000000000,144.847004300000000,0153-52-3145,0153-52-6137,5000020016624,厚岸町,154380034,,,,http://www.akkeshi-town.jp/byoin,,,,
16012,153880042,北海道,日高町,日高町立介護老人保健施設門別愛生苑,ヒダカチョウリツカイゴロウジンホケンシセツモンベツアイセイエン,短期入所療養介護（介護老人保健施設）,北海道沙流郡日高町門別本町２９番地の３,,42.480201100000000,142.069039700000000,01456-2-6611,01456-2-6600,,日高町,153880042,,,0,,,,,
12297,153010888,北海道,富良野市,介護老人保健施設　けんこう・ふらの,カイゴロウジンホケンシセツ　ケンコウ・フラノ,短期入所療養介護（介護老人保健施設）,富良野市末広町6番17号,,43.340398400000000,142.386508500000000,0167-56-8000,0167-56-8001,,医療法人社団　かわむら整形外科医院,153010888,,,0,http://kawamura-mgp.or.jp/kenkou-furano/,,,,
12084,155080039,北海道,北見市,介護老人保健施設さくら,カイゴロウジンホケンシセツサクラ,短期入所療養介護（介護老人保健施設）,北見市北光280番6号,,43.778783600000000,143.867901600000000,0157-68-1139,0157-68-1133,1460305000169,医療法人社団煌生会,155080039,,,0,http://www.mintpia.jp/sakura/,,,,
12173,151080074,北海道,江別市,介護老人保健施設葵の園・江別,カイゴロウジンホケンシセツアオイノソノ・エベツ,短期入所療養介護（介護老人保健施設）,北海道江別市⼤⿇南樹町１－１,,43.082395002795000,141.502622627789000,011-387-6655,011-387-6656,,葵新生会,151080074,,,0,http://www.aoikai.jp/,,,,
14028,152380028,北海道,岩内町,社会福祉法人渓仁会　介護老人保健施設コミュニティホーム岩内,シャカイフクシホウジンケイジンカイ　カイゴロウジンホケンシセツコミュニティホームイワナイ,短期入所療養介護（介護老人保健施設）,北海道岩内郡岩内町字野束69番地の26,,42.966714200000000,140.509876400000000,0135-62-3800,0135-62-3887,5430005000583,社会福祉法人渓仁会,152380028,,,,http://www.keijinkai.com/,,,,
15636,155180029,北海道,雄武町,雄武町立介護老人保健施設ハマナス,オウムチョウリツカイゴロウジンホケンシセツハマナス,短期入所療養介護（介護老人保健施設）,北海道紋別郡雄武町字雄武１４８２番地２,,44.582395000000000,142.956883000000000,0158-84-2517,0158-84-3443,,雄武町,155180029,,,0,http://www.town.oumu.hokkaido.jp/hospital/,,,,
12025,151480019,北海道,函館市,介護老人保健施設　グランドサン亀田,カイゴロウジンホケンシセツ　グランドサンカメダ,短期入所療養介護（介護老人保健施設）,北海道函館市石川町191番地4,,41.835860066082900,140.742938519049000,0138-46-3151,0138-46-9139,,医療法人亀田病院,151480019,,,0,http://www.hakodate-kameda-hp.com,,,,
12025,151480100,北海道,函館市,介護老人保健施設　もも太郎,カイゴロウジンホケンシセツ　モモタロウ,短期入所療養介護（介護老人保健施設）,函館市赤川町388番地1,,41.836295700000000,140.768502100000000,0138-47-5550,0138-47-5551,,社会福祉法人　函館厚生院,151480100,,,0,http://momo-taro.koseiin.or.jp/,,,,
12025,151480043,北海道,函館市,介護老人保健施設ケンゆのかわ（短期入所療養介護事業所）,カイゴロウジンホケンシセツケンユノカワ（タンキニュウショリョウヨウカイゴジギョウショ）,短期入所療養介護（介護老人保健施設）,北海道函館市湯川町3丁目29番15号,,41.783655000000000,140.791242100000000,0138-59-1211,0138-59-3990,,社会福祉法人函館厚生院,151480043,,,0,http://ken-yuno.koseiin.or.jp/,,,,
12041,152980058,北海道,旭川市,老人保健施設さくら館,ロウジンホケンシセツサクラカン,短期入所療養介護（介護老人保健施設）,旭川市４条西４丁目２番１号,,43.773734500000000,142.345804100000000,0166-27-0200,0166-27-0225,,医療法人社団慶友会,152980058,,,0,http://www.keiyukai-group.com/sakurakan,,,,
12068,154180020,北海道,釧路市,道東勤医協老人保健施設ケアコートひまわり,ドウトウキンイキョウロウジンホケンシセツケアコートヒマワリ,短期入所療養介護（介護老人保健施設）,北海道釧路市堀川町8番43号,,42.998455652534800,144.392615401189000,0154-24-1165,0154-23-7665,2460005000393,医療法人道東勤労者医療協会,154180020,,,0,http://dotokin-kaigo.com/,,,,
12076,154680029,北海道,帯広市,十勝勤医協老人保健施設ケアセンター白樺,トカチキンイキョウロウジンホケンシセツケアセンターシラカバ,短期入所療養介護（介護老人保健施設）,帯広市白樺１６条西２丁目,,42.918125032454900,143.174042419188000,0155-41-1165,0155-41-1161,,医療法人十勝勤労者医療協会,154680029,,,0,http://www.tokachi-kin-ikyo.or.jp/care-center/index.html,,,,
12106,155780018,北海道,岩見沢市,北村温泉ナーシングホーム,キタムラオンセンナーシングホーム,短期入所療養介護（介護老人保健施設）,北海道岩見沢市北村赤川５８６番地６３,,43.260346400000000,141.701321300000000,0126-56-2241,0126-55-3354,7430005005688,医療法人友愛会,155780018,,,0,http://www.kitamura-yuai.jp/,,,,
12122,156480014,北海道,留萌市,介護老人保健施設　サンライズ留萌,カイゴロウジンホケンシセツ　サンライズルモイ,短期入所療養介護（介護老人保健施設）,留萌市東雲町２丁目,,43.933193011515100,141.677586637048000,0164-43-1195,0164-43-1184,,優仁会,156480014,,,,,,,,
12050,153580014,北海道,室蘭市,介護老人保健施設エバーグリーンハイツ室蘭,カイゴロジンホケンシセツエバーグリーンハイツムロラン,短期入所療養介護（介護老人保健施設）,室蘭市八丁平１丁目４９番地,,42.366975600000000,141.007683500000000,0143-46-4500,0143-46-4501,,医療法人社団青雲会,153580014,,,,http://seiunkai.jp/,,,,
12246,151180015,北海道,千歳市,介護老人保健施設　クリアコート千歳,カイゴロウジンホケンシセツ　クリアコートチトセ,短期入所療養介護（介護老人保健施設）,北海道千歳市桂木1丁目5番7号,,42.819720561141100,141.624027630244000,0123-27-3232,0123-27-3207,8430005005877,医療法人資生会,151180015,,,0,http://www.siseikai.or.jp,,,,
16101,153880059,北海道,新ひだか町,新ひだか町介護老人保健施設まきば,シンヒダカチョウカイゴロウジンホケンシセツ,短期入所療養介護（介護老人保健施設）,北海道日高郡新ひだか町静内緑町4丁目5番1号,,42.338898200000000,142.374590400000000,0146-43-1100,0146-43-0260,,新ひだか町,153880059,,,0,,,,,
14001,152280012,北海道,倶知安町,介護老人保健施設　麓華苑,カイゴロウジンホケンシセツ　ロッカエン,短期入所療養介護（介護老人保健施設）,北海道虻田郡倶知安町南3条東5丁目1番地2,,42.899432700000000,140.762161700000000,0136-22-0003,0136-22-0288,,医療法人社団　白樺会,152280012,,,0,http://www.shirakaba-group.jp,,,,
14249,157180043,北海道,奈井江町,介護老人保健施設「健寿苑」,カイゴロウジンホケンシセツ「ケンジュエン」,短期入所療養介護（介護老人保健施設）,北海道空知郡奈井江町字奈井江12番地9,,43.426000400000000,141.883176800000000,0125-65-5232,0125-65-2149,2430005013092,社会福祉法人日本介護事業団,157180043,,,,,,,,
16675,154380042,北海道,鶴居村,介護老人保健施設えんれい荘,カイゴロウジンホケンシセツエンレイソウ,短期入所療養介護（介護老人保健施設）,北海道阿寒郡鶴居村字雪裡原野北２２線西１１番地,,43.272728506910400,144.325840111639000,0154-64-2126,0154-64-2669,8430005005877,医療法人資生会,154380042,,,,http://www.siseikai.or.jp/enreiso/,,,,
14591,153180039,北海道,美瑛町,美瑛町老人保健施設ほの香,ビエイチョウロウジンホケンシセツホノカ,短期入所療養介護（介護老人保健施設）,北海道上川郡美瑛町東町３丁目７０１番３,,43.588887148207700,142.474844823248000,0166-92-1511,0166-92-1303,5450005002025,社会福祉法人　美瑛慈光会,153180039,,,0,,,,,
15148,156780041,北海道,枝幸町,介護老人保健施設うたのぼり,カイゴロウジンホケンシセツウタノボリ,短期入所療養介護（介護老人保健施設）,北海道枝幸郡枝幸町歌登南町４０３番地,,44.838316200000000,142.478321200000000,0163-68-2341,0163-68-3309,,枝幸町,156780041,,,0,http://esashi-hospital.jp/,,,,
15199,156780033,北海道,利尻富士町,利尻島老人保健施設,リシリトウロウジンホケンシセツ,短期入所療養介護（介護老人保健施設）,北海道利尻郡利尻富士町鬼脇字金崎３３２番地,,45.131270800000000,141.304539100000000,0163-89-3216,0163-83-1472,,利尻富士町,156780033,,,0,,,,,
15431,155280019,北海道,美幌町,社会医療法人　恵和会　介護老人保健施設　アメニティ美幌,シャカイイリョウホウジン　ケイワカイ　カイゴロウジンホケンシセツ　アメニティビホロ,短期入所療養介護（介護老人保健施設）,北海道網走郡美幌町字仲町二丁目三十八番地の二,,43.832639200000000,144.105174700000000,0152-75-2210,0152-75-2216,7430005001448,社会医療法人　恵和会,155280019,,,0,http://www.keiwakai.jp/amebiho/index.html,,,,
15555,155480015,北海道,遠軽町,介護老人保健施設　プライム　いくたはら,カイゴロウジンホケンシセツ　プライム　イクタハラ,短期入所療養介護（介護老人保健施設）,北海道紋別郡遠軽町生田原伊吹6番地1,,43.905725900000000,143.530622200000000,0158-45-2600,0158-45-2601,,医療法人　交雄会,155480015,,,0,http://koyukai-g.jp/puraimu/,,,,
12025,151480027,北海道,函館市,介護老人保健施設ロイヤルヒルズ日吉,カイゴロウジンホケンシセツロイヤルヒルズヒヨシ,短期入所療養介護（介護老人保健施設）,北海道函館市日吉町4丁目7-81,,41.802186900000000,140.795093800000000,0138-31-3113,0138-31-3198,,特定医療法人富田病院,151480027,,,0,http://www.tomita-hospital.or.jp,,,,
12025,151480084,北海道,函館市,介護老人保健施設やわらぎ苑西桔梗,カイゴロウジンホケンシセツヤワラギエンニシキキョウ,短期入所療養介護（介護老人保健施設）,函館市西桔梗町735番地4,,41.845115300000000,140.716369000000000,0138-49-8555,0138-49-7707,,医療法人　やわらぎ会,151480084,,,2,http://www.yawaragikai.com/kaigo/k_yawaragien.html,,,,
12025,151480035,北海道,函館市,介護老人保健施設ジョイウェルス桔梗,カイゴロウジンホケンシセツジョイウェルスキキョウ,短期入所療養介護（介護老人保健施設）,函館市桔梗町５５７番地,,41.860445800000000,140.753513400000000,0138-46-8881,0138-46-8880,9440005000257,医療法人　聖仁会,151480035,,,0,http://www.seijinkai-mori.jp/,,,,
12025,151480068,北海道,函館市,介護老人保健施設ゆとりろ,カイゴロウジンホケンシセツユトリロ,短期入所療養介護（介護老人保健施設）,北海道函館市宝来町14番27号,,41.757647200000000,140.721847500000000,0138-23-7223,0138-23-5400,8440005000266,社会医療法人高橋病院,151480068,,,150,http://takahashi-group.jp/,,,,
12025,151480050,北海道,函館市,介護老人保健施設　響の杜,カイゴロウジンホケンシセツ　ヒビキノモリ,短期入所療養介護（介護老人保健施設）,北海道函館市陣川町９１番地４,,41.825522500000000,140.786462800000000,0138-31-8320,0138-31-8336,,医療法人　函館友愛会,151480050,,,0,,,,,
12033,152080024,北海道,小樽市,老人保健施設マイトリーおたる,ロウジンホケンシセツマイトリーオタル,短期入所療養介護（介護老人保健施設）,北海道小樽市奥沢1丁目2番2号,,43.182893300000000,141.005942100000000,0134-21-2555,0134-21-2533,,医療法人双葉会,152080024,,,,maitori@hkg.odn.ne.jp,,,,
12033,152080057,北海道,小樽市,介護老人保健施設　望,カイゴロウジンホケンシセツ　ノゾミ,短期入所療養介護（介護老人保健施設）,小樽市望洋台2丁目30番10号,,43.165207300000000,141.037343000000000,0134-51-2215,0134-51-2216,,医療法人社団　清か,152080057,,,5,http://sayaka-nozomi.skr.jp/,,,,
12033,172000622,北海道,小樽市,社会福祉法人恩賜財団済生会支部北海道済生会小樽老人保健施設はまなす,シャカイフクシホウジンオンシザイダンサイセイカイシブホッカイドウサイセイカイオタルロウジンホケンシセツハマナス,短期入所療養介護（介護老人保健施設）,小樽市塩谷２丁目１７番２５号,,43.207755600000000,140.928090300000000,0134-28-2600,0134-26-0021,,北海道済生会,172000622,,,0,https://www.otaru-hamanasu.com/,,,,
12033,152080016,北海道,小樽市,医療法人勉仁会介護老人保健施設ラポール東小樽,イリョウホウジンベンジンカイカイゴロウジンホケンシセツラポールヒガシオタル,短期入所療養介護（介護老人保健施設）,小樽市新光２丁目２９番２号,,43.168298000000000,141.052370700000000,0134-52-3000,0134-52-0545,3430005001518,医療法人　勉仁会,152080016,,,,http://www.nakagaki-hp.or.jp/,,,,
12041,152980074,北海道,旭川市,介護老人保健施設　フェニックス,カイゴロウジンホケンシセツ　フェニックス,短期入所療養介護（介護老人保健施設）,旭川市豊岡13条1丁目1番17号,,43.771147400000000,142.390141000000000,0166-34-8181,0166-34-8338,6450005000358,医療法人　歓生会,152980074,,,5,http://www.328181.com,,,,
12041,152980082,北海道,旭川市,老人保健施設かたくりの郷,ロウジンホケンシセツカタクリノサト,短期入所療養介護（介護老人保健施設）,北海道旭川市神楽３条４丁目２番１４号,,43.762224800000000,142.348051700000000,0166-63-1165,0166-62-7997,,社会医療法人道北勤労者医療協会,152980082,,,0,http://www.dohoku-kinikyo.or.jp,,,,
12041,152980017,北海道,旭川市,旭川老人保健施設　ふれあい,アサヒカワロウジンホケンシセツフレアイ,短期入所療養介護（介護老人保健施設）,旭川市錦町18丁目2150番地,,43.791690300000000,142.332359800000000,0166-51-1818,0166-51-1579,8450005000372,医療法人　恵心会,152980017,,,0,http://www.keishinkai.jp.net/index.html,,,,
12041,152980033,北海道,旭川市,介護老人保健施設旭泉苑,カイゴロウジンホケンシセツキョクセンエン,短期入所療養介護（介護老人保健施設）,旭川市永山四条6丁目3番24号,,43.792090700000000,142.409490800000000,0166-47-8000,0166-47-7867,7450005000365,医療法人社団旭豊会,152980033,,,,http://kyokuhoukai.or.jp,,,,
12041,152980066,北海道,旭川市,老人保健施設愛善ハイツ,ロウジンホケンシセツアイゼンハイツ,短期入所療養介護（介護老人保健施設）,北海道旭川市春光台4条11丁目5249番地の2,,43.831673700000000,142.371958500000000,0166-54-7371,0166-54-7313,,社会福祉法人愛善会,152980066,,,0,http://aizenkai-swc.jp,,,,
12041,152980132,北海道,旭川市,医療法人仁友会　介護老人保健施設みやびの森,イリョウホウジンジンユウカイ　カイゴロウジンホケンシセツミヤビノモリ,短期入所療養介護（介護老人保健施設）,北海道旭川市東旭川町下兵村320番18,,43.773082600000000,142.432097300000000,0166-36-6520,0166-36-6550,4450005000434,仁友会,152980132,,,0,https://miyabi.jinyukai.jp/,,,,
12041,152980025,北海道,旭川市,老人保健施設　サニーヒル,ロウジンホケンシセツ　サニーヒル,短期入所療養介護（介護老人保健施設）,旭川市末広８条６丁目５３０７,,43.819778500000000,142.373381300000000,0166-51-1127,0166-46-8010,1450005000222,社会福祉法人　旭川福祉事業会,152980025,,,,http://www.a-fukushi.or.jp/,,,,
12041,152980041,北海道,旭川市,老人保健施設　グリーンライフ,ロウジンホケンシセツ　グリーンライフ,短期入所療養介護（介護老人保健施設）,北海道旭川市神楽岡１４条７丁目１番１号,,43.734875800000000,142.362476200000000,0166-65-7700,0166-66-0181,,医療法人社団　創成,152980041,,,0,https://sousei-hp.com/greenlife/,,,,
12084,155080021,北海道,北見市,介護老人保健施設いきいき,カイゴロウジンホケンシセツイキイキ,短期入所療養介護（介護老人保健施設）,北見市東相内町172番地80,,43.800755400000000,143.819465200000000,0157-66-1111,0157-36-8181,,医療法人社団久仁会,155080021,,,0,,,,,
12084,155080047,北海道,北見市,介護老人保健施設緑風,カイゴロウジンホケンシセツリョクフウ,短期入所療養介護（介護老人保健施設）,北海道北見市緑ヶ丘3丁目29番8号介護老人保健施設緑風,介護老人保健施設緑風,43.824642900000000,143.870259100000000,0157-24-2806,0157-23-8528,1460305001274,社会福祉法人恵和福祉会,155080047,,,,http://www.keiwafukushi.jp/ryokufu/index.php,,,,
12068,154180012,北海道,釧路市,介護老人保健施設老健くしろ,カイゴロウジンホケンシセツロウケンクシロ,短期入所療養介護（介護老人保健施設）,北海道釧路市昭和１９０番地４４６２,,43.032423700000000,144.355828700000000,0154-55-2331,0154-53-3010,6460005000423,医療法人豊慈会,154180012,,,100,http://www.hjg.jp,,,,
12068,174100974,北海道,釧路市,介護老人保健施設　老健たいよう,カイゴロウジンホケンシセツ,短期入所療養介護（介護老人保健施設）,北海道釧路市春採7丁目9番8号,,42.978448700000000,144.419532000000000,0154-46-7233,0154-46-7236,,社会福祉法人　釧路創生会,174100974,,,0,http://www.kushiro-souseikai.com,,,,
12068,154180046,北海道,釧路市,老人保健施設　星が浦,ロウジンホケンシセツ　ホシガウラ,短期入所療養介護（介護老人保健施設）,北海道釧路市星が浦大通３丁目９番３５号,,43.016540400000000,144.316907800000000,0154-55-2800,0154-55-2801,,社会医療法人　孝仁会,154180046,,,5,http://www.kojinkai.or.jp,,,,
12076,154680037,北海道,帯広市,介護老人保健施設ケアステーションアンダンテ,カイゴロウジンホケンシセツケアステーションアンダンテ,短期入所療養介護（介護老人保健施設）,北海道帯広市西17条南3丁目24－24,,42.917984400000000,143.168980900000000,0155-58-6500,0155-58-6501,,社会福祉法人光寿会,154680037,,,0,http://koujyukai.org,,,,
12076,154680052,北海道,帯広市,介護老人保健施設ヴィラかいせい,カイゴロウジンホケンシセツウ゛ィラカイセイ,短期入所療養介護（介護老人保健施設）,帯広市西22条南2丁目2番地10,,42.919458200000000,143.131464400000000,0155-37-7600,0155-37-7602,8460105000362,社会医療法人　博愛会,154680052,,,100,http://www.villa-kaisei.org/,,,,
12076,154680011,北海道,帯広市,介護老人保健施設アメニティ帯広,カイゴロウジンホケンシセツアメニティオビヒロ,短期入所療養介護（介護老人保健施設）,帯広市西１６条北１丁目２７番地,,42.931369100000000,143.175463200000000,0155-36-1234,0155-35-6020,,医療法人社団刀圭会,154680011,,,0,http://toukeikai.or.jp/,,,,
12076,154680045,北海道,帯広市,十勝自立支援センター　介護老人保健施設かけはし,トカチジリツシエンセンター　カイゴロウジンホケンシセツ　カケハシ,短期入所療養介護（介護老人保健施設）,北海道帯広市稲田町基線2番地1十勝自立支援センター　介護老人保健施設　かけはし,十勝自立支援センター　介護老人保健施設　かけはし,42.885591582144300,143.192827958411000,0155-47-4184,0155-48-4184,6460105000364,社会医療法人　北斗,154680045,,,0,http://www.hokuto7.or.jp/,,,,
12114,155380017,北海道,網走市,介護老人保健施設いせの里,カイゴロウジンホケンシセツイセノサト,短期入所療養介護（介護老人保健施設）,北海道網走市字潮見１９２番地,,43.998086700000000,144.269118800000000,0152-43-7100,0152-45-3791,3460305001413,社会福祉法人　網走愛育会,155380017,,,0,http://www.isenosato.sakura.ne.jp/,,,,
12114,155380033,北海道,網走市,介護老人保健施設あるかさる,カイゴロウジンホケンシセツアルカサル,短期入所療養介護（介護老人保健施設）,網走市桂町4丁目7番11号,,44.012213100000000,144.270373800000000,0152-61-6163,0152-61-1666,,社会医療法人明生会,155380033,,,0,http://www.meiseikai-smc.jp/,,,,
12092,155980014,北海道,夕張市,介護老人保健施設　虹ヶ丘,カイゴロウジンホケンシセツ　ニジガオカ,短期入所療養介護（介護老人保健施設）,北海道夕張市日吉１４番地６,,43.021483000000000,141.982263800000000,0123-53-3131,0123-56-6667,,医療法人社団　英仁会,155980014,,,4,http://nijigaoka-yubari.com/,,,,
12092,175900190,北海道,夕張市,介護老人保健施設　夕張,カイゴロウジンホケンシセツ　ユウバリ,短期入所療養介護（介護老人保健施設）,夕張市社光２０番地,,43.061178400000000,141.979953600000000,0123-52-4336,0123-52-2626,,医療法人社団　豊生会,175900190,,,,http://www.houseikai.or.jp/hospital/,,,,
12106,155780026,北海道,岩見沢市,介護老人保健施設　北翔館,カイゴロウジンホケンシセツ　ホクショウカン,短期入所療養介護（介護老人保健施設）,北海道岩見沢市１０条西２１丁目２番地,,43.187619803666400,141.753126692590000,0126-32-2177,0126-32-2150,9430005006692,医療法人　北翔会,155780026,,,0,http://www.hokushokai.or.jp/,,,,
12106,155780034,北海道,岩見沢市,介護老人保健施設ゆあみーる,カイゴロウジンホケンシセツユアミール,短期入所療養介護（介護老人保健施設）,岩見沢市８条西１９丁目８－１,,43.191002600000000,141.752543700000000,0126-20-2311,0126-20-2312,,医療法人　萌佑会,155780034,,,0,http://www.iwamizawanouge.com/facilities/index.shtml,,,,
12149,156780017,北海道,稚内市,社会医療法人禎心会老人保健施設ら・ぷらーさ,シャカイイリョウホウジンテイシンカイロウジンホケンシセツラ・プラーサ,短期入所療養介護（介護老人保健施設）,稚内市栄1丁目24番2号,,45.387117392499500,141.696061924992000,0162-29-4322,0162-29-4323,5430005001508,社会医療法人禎心会,156780017,,,2,http://www.teishinkai.jp,,,,
12131,153680012,北海道,苫小牧市,老人保健施設　苫小牧健樹園,ロウジンホケンシセツ　トマコマイケンジュエン,短期入所療養介護（介護老人保健施設）,苫小牧市澄川町７丁目９番１８号,,42.623857200000000,141.514112800000000,0144-67-3111,0144-67-3114,5430005001540,社会医療法人　延山会,153680012,,,,http://www.sumikawa-hp.com,,,,
12131,153680053,北海道,苫小牧市,ライフスプリング桜木,ライフスプリングサクラギ,短期入所療養介護（介護老人保健施設）,北海道苫小牧市桜木町2丁目25番1号,,42.627871241656900,141.553242949599000,0144-71-2369,0144-71-2269,,医療法人社団苫仁会,153680053,,,,http://www.mc-senjinkai.or.jp/,,,,
12131,153680046,北海道,苫小牧市,老人保健施設東胆振ケアセンター,ロウジンホケンシセツヒガシイブリケアセンター,短期入所療養介護（介護老人保健施設）,苫小牧市字植苗51-156,,42.725651700000000,141.720053300000000,0144-58-2323,0144-58-2347,,緑星の里,153680046,,,0,,,,,
12131,153680038,北海道,苫小牧市,介護老人保健施設ケアライフ王子,カイゴロウジンホケンシセツケアライフオウジ,短期入所療養介護（介護老人保健施設）,苫小牧市若草町３丁目４番８号,,42.638510000000000,141.604738400000000,0144-36-7111,0144-36-7070,,医療法人王子総合病院,153680038,,,0,http://www.ojihosp.or.jp/,,,,
12050,153580048,北海道,室蘭市,介護老人保健施設憩,カイゴロウジンホケンシセツイコイ,短期入所療養介護（介護老人保健施設）,室蘭市知利別町１－４５,,42.357523700000000,141.016511000000000,0143-41-1511,0143-41-3072,,社会医療法人製鉄記念室蘭病院,153580048,,,70,http://www.nshp-muroran.or.jp,,,,
12050,153580030,北海道,室蘭市,老人保健施設母恋,ロウジンホケンシセツボコイ,短期入所療養介護（介護老人保健施設）,北海道室蘭市新富町１－５－１３,,42.315316900000000,140.983854100000000,0143-25-2121,0143-25-2855,9430005009869,社会医療法人母恋,153580030,,,100,http://www.bokoi.jp/rouken/index.html,,,,
12157,156180028,北海道,美唄市,コミュニティホーム美唄,コミュニティホームビバイ,短期入所療養介護（介護老人保健施設）,北海道美唄市東5条南7丁目5番1号,,43.318105500000000,141.869437500000000,0126-66-2001,0126-66-2005,5430005000583,社会福祉法人　渓仁会,156180028,,,1,http://www.keijinkai.com/c-bibai/,,,,
12165,157380015,北海道,芦別市,芦別市介護老人保健施設,アシベツシカイゴロウジンホケンシセツ,短期入所療養介護（介護老人保健施設）,北海道芦別市本町１４番地,,43.518302400000000,142.195669200000000,0124-22-1816,0124-22-0006,5430005007439,社会福祉法人　芦別市社会福祉事業団,157380015,,,0,http://www.ans.co.jp/u/rouken-subaru/,,,,
12173,151080033,北海道,江別市,介護老人保健施設はるにれ,カイゴロウジンホケンシセツハルニレ,短期入所療養介護（介護老人保健施設）,北海道江別市大麻北町607番地2,,43.089178100000000,141.499348400000000,011-386-0550,011-386-0367,1430005005710,医療法人はるにれ,151080033,,,0,http://www.irryo-harunire.or.jp,,,,
12173,151080025,北海道,江別市,友愛ナーシングホーム,ユウアイナーシングホーム,短期入所療養介護（介護老人保健施設）,北海道江別市新栄台46番地の12,,43.108101600000000,141.511354200000000,011-382-1110,011-382-1022,5430005005715,社会福祉法人　北海道友愛福祉会,151080025,,,0,http://www.yuaifukushi.net/nursing/,,,,
12173,151080041,北海道,江別市,老健のっぽろ,ロウケンノッポロ,短期入所療養介護（介護老人保健施設）,江別市東野幌396番地32,,43.072567100000000,141.545753600000000,011-381-1133,011-381-1817,,医療法人英生会,151080041,,,0,http://www.nopporo.or.jp/rouken_k/index.html,,,,
12173,151080066,北海道,江別市,老健のっぽろ（ユニット）,ロウケン　ノッポロ　（ユニット）,短期入所療養介護（介護老人保健施設）,北海道江別市東野幌396番地32,,43.072567100000000,141.545753600000000,011-381-1133,011-381-1817,,医療法人英生会,151080066,,,0,http://www.nopporo.or.jp/rouken_k/index.html,,,,
12190,155180011,北海道,紋別市,介護老人保健施設サン・ヒルズ紋別,カイゴロウジンホケンシセツサン・ヒルズモンベツ,短期入所療養介護（介護老人保健施設）,北海道紋別市花園町５丁目３番７号,,44.351842800000000,143.347287400000000,0158-26-2500,0158-26-2155,,医療法人社団明正会,155180011,,,0,,,,,
12238,154280028,北海道,根室市,社会福法人根室恵徳会介護老人保健施設セラピーこざくら,シャカイフクシホウジンネムロケイトクカイカイゴロウジンホケンシセツセラピーコザクラ,短期入所療養介護（介護老人保健施設）,北海道根室市西浜町５丁目８９番地１,,43.314327400000000,145.565586300000000,0153-23-5522,0153-23-3113,,社会福法人根室恵徳会,154280028,,,0,,,,,
12211,153280029,北海道,名寄市,介護老人保健施設　そよかぜ館,カイゴロウジンホケンシセツ　ソヨカゼカン,短期入所療養介護（介護老人保健施設）,北海道名寄市字緑丘11番地15,,44.343423300000000,142.479042000000000,01654-3-6100,01654-3-6868,,医療法人臨生会,153280029,,,0,http://north.hokkai.net/~nort3381/soyokaze/top.htm,,,,
12203,153280011,北海道,士別市,老人保健施設　ボヌゥール士別,ロウジンホケンシセツ　ボヌゥールシベツ,短期入所療養介護（介護老人保健施設）,北海道士別市東５条１６丁目３１２９番地１４３,,44.166576900000000,142.403662200000000,0165-23-3911,0165-23-3950,6450005002404,医療法人社団　三愛会,153280011,,,0,http://sanai-kai.or.jp/shisetsu_bonheur/,,,,
12246,151180023,北海道,千歳市,医療法人社団いずみ会　介護老人保健施設　北星館,イリョウホウジンシャダンイズミカイ　カイゴロウジンホケンシセツ　ホクセイカン,短期入所療養介護（介護老人保健施設）,北海道千歳市清流5丁目1番1号,,42.842294200000000,141.658771000000000,0123-40-2525,0123-40-2526,7430005005911,医療法人社団いずみ会,151180023,,,0,https://www.hokusei.or.jp/hokuseikan/index.html,,,,
12254,157580028,北海道,滝川市,滝川市老人保健施設ナイスケアすずかけ,タキカワシロウジンホケンシセツナイスケアスズカケ,短期入所療養介護（介護老人保健施設）,北海道滝川市江部乙町東13丁目1番60号,,35.479764100000000,135.088481500000000,0125-26-4165,0125-26-4166,4430005007423,社会福祉法人　滝川市社会福祉事業団,157580028,,,0,http://www.hokkaido-hukushi.jp/,,,,
12254,117510446,北海道,滝川市,介護老人保健施設シーザーズ,カイゴロウジンホケンシセツシーザーズ,短期入所療養介護（介護老人保健施設）,北海道滝川市栄町３丁目３番１６号,,43.557731300000000,141.906235400000000,0125-74-6511,0125-22-5645,5430005007389,医療法人シーザーズ・メディ・ケア,117510446,,,,http://caeser.jp/,,,,
12262,157180035,北海道,砂川市,砂川介護老人保健施設みやかわ,スナガワカイゴロウジンホケンシセツミヤカワ,短期入所療養介護（介護老人保健施設）,北海道砂川市西3条南10丁目3番1号,,43.479280300000000,141.900766700000000,0125-55-2111,0125-52-3802,3430005007440,社会福祉法人砂川福祉会,157180035,,,0,http://sunagawafukushikai.jp/,,,,
12289,157480013,北海道,深川市,介護老人保健施設エーデルワイス,カイゴロウジンホケンシセツエーデルワイス,短期入所療養介護（介護老人保健施設）,北海道深川市北光町２丁目１０番２２号,,43.727090900000000,142.040244800000000,0164-23-5110,0164-26-2077,7450005001578,医療法人アンリー・デュナン会,157480013,,,,http://www.henry-dunant.or.jp/framepage18.htm,,,,
12297,153080015,北海道,富良野市,社会福祉法人北海道社会事業協会　介護老人保健施設ふらの,シャカイフクシホウジンホッカイドウシャカイジギョウキョウカイカイゴロウジンホケンシセツフラノ,短期入所療養介護（介護老人保健施設）,北海道富良野市住吉町１番２５号,,43.345678500000000,142.393518800000000,0167-23-3933,0167-23-3926,2430005000677,社会福祉法人北海道社会事業協会,153080015,,,0,http://www.k4.dion.ne.jp/~furano/,,,,
12343,151380011,北海道,北広島市,介護老人保健施設　エスポワール北広島,カイゴロウジンホケンシセツ　エスポワールキタヒロシマ,短期入所療養介護（介護老人保健施設）,北広島市輪厚704番地16,,42.944213600000000,141.508330100000000,011-376-3911,011-377-5621,4430005004775,医療法人社団　翔仁会,151380011,,,10,http://www.shojinkai.or.jp,,,,
12319,151280021,北海道,恵庭市,医療法人北晨会　介護老人保健施設　恵み野ケアサポート,イリョウホウジンホクシンカイカイゴロウジンホケンシセツメグミノケアサポート,短期入所療養介護（介護老人保健施設）,恵庭市恵み野西２丁目３番地４,,42.899954300000000,141.577217700000000,0123-37-5060,0123-37-5066,,社会医療法人　北晨会,151280021,,,,http://www.megumino.or.jp/caresupport/cs_top.html,,,,
12319,151280013,北海道,恵庭市,介護老人保健施設アートライフ恵庭,カイゴロウジンホケンシセツ　アートライフエニワ,短期入所療養介護（介護老人保健施設）,北海道恵庭市西島松567番1,,42.910288500000000,141.561765800000000,0123-37-1511,0123-37-1516,,医療法人　盟侑会,151280013,,,,http://www.artlife-eniwa.jp,,,,
12335,153780028,北海道,伊達市,介護老人保健施設　プライムヘルシータウン湘南,カイゴロウジンホケンシセツ　プライムヘルシータウンショウナン,短期入所療養介護（介護老人保健施設）,北海道伊達市松ヶ枝町157番地110,,42.476584100000000,140.883904800000000,0142-22-1200,0142-25-1300,,社会福祉法人　幸清会,153780028,,,0,http://www.koseikai-wel.or.jp/,,,,
12335,153780044,北海道,伊達市,社会医療法人慈恵会　介護老人保健施設　北湯沢温泉いやしの郷,シャカイイリョウホウジン　ジケイカイ　カイゴロウジンホケンシセツ　キタユザワオンセンイヤシノサト,短期入所療養介護（介護老人保健施設）,伊達市大滝区優徳町159番地,,42.640142846649800,141.040819235582000,0142-68-6331,0142-68-6663,8430005009754,社会医療法人慈恵会,153780044,,,0,http://www.jikeikai.or.jp,,,,
12301,153580022,北海道,登別市,介護老人保健施設グリーンコート三愛,カイゴロウジンホケンシセツグリーンコートサンアイ,短期入所療養介護（介護老人保健施設）,北海道登別市中登別町２４番地１１３,,42.464207700000000,141.168995500000000,0143-83-0111,0143-83-0113,,特定医療法人社団千寿会,153580022,,,0,http://www.sanai-hospital.or.jp/facility/greencoat_sannai.php,,,,
12301,153580055,北海道,登別市,介護老人保健施設　グリーンコート三愛,カイゴロウジンホケンシセツ　グリーンコートサンアイ,短期入所療養介護（介護老人保健施設）,北海道登別市中登別町24-113,,42.464207700000000,141.168995500000000,0143-83-0111,0143-83-0113,,特定医療法人社団千寿会,153580055,,,0,http://ww.sanai-hospital.or.jp/,,,,
12351,157680034,北海道,石狩市,介護老人保健施設オアシス21,カイゴロウジンホケンシセツオアシス２１,短期入所療養介護（介護老人保健施設）,石狩市花川南7条5丁目3番地2,,43.139831700000000,141.292846500000000,0133-72-0021,0133-72-4882,,医療法人喬成会,157680034,,,0,http://kyouseikai.jp/oasis21/,,,,
13030,151080058,北海道,当別町,介護老人保健施設　愛里苑,カイゴロウジンホケンシセツ　アイリエン,短期入所療養介護（介護老人保健施設）,北海道石狩郡当別町ビトエ2200番地１,,43.186439800000000,141.433547800000000,0133-26-2874,0133-26-2832,5430005001490,医療法人秀友会,151080058,,,0,http://shuyukai.or.jp/group/airien.html,,,,
13374,151580024,北海道,七飯町,老人保健施設　あかまつの里ななえ,ロウジンホケンシセツ　アカマツノサトナナエ,短期入所療養介護（介護老人保健施設）,北海道亀田郡七飯町本町４丁目６番１０号,,41.896852700000000,140.690144600000000,0138-65-1130,0138-66-2110,4440005000229,医療法人社団健和会,151580024,,,0,,,,,
13617,151680014,北海道,江差町,介護老人保健施設　カタセールえさし,カイゴロウジンホケンシセツ　カタセールエサシ,短期入所療養介護（介護老人保健施設）,北海道檜山郡江差町字尾山町153番地-1,,41.899139100000000,140.144055300000000,0139-54-2121,0139-52-1219,7440005001950,医療法人社団恵愛会,151680014,,,0,,,,,
13463,151580032,北海道,八雲町,介護老人保健施設　コミュニティホーム八雲,カイゴロウジンホケンシセツ　コミュニティホームヤクモ,短期入所療養介護（介護老人保健施設）,北海道二海郡八雲町栄町１３番地１,,42.256220700000000,140.258662300000000,0137-65-2000,0137-63-2085,5430005000583,社会福祉法人　渓仁会,151580032,,,0,http://www.keijinkai.com/,,,,
13455,151580057,北海道,森町,道南森ロイヤルケアセンター,ドウナンモリロイヤルケアセンター,短期入所療養介護（介護老人保健施設）,北海道茅部郡森町上台町３２６－１１７,,42.103597700000000,140.568085700000000,01374-3-2111,01374-3-2112,1390005005954,医療法人社団明山会,151580057,,,2,http://www.ims.gr.jp/dounanmori-royal/,,,,
13706,151780012,北海道,今金町,今金町介護老人保健施設,イマカネチョウカイゴロウジンホケンシセツ,短期入所療養介護（介護老人保健施設）,北海道瀬棚郡今金町字今金１７－２,,42.429736200000000,140.007461200000000,0137-82-2780,0137-82-3867,,今金町,151780012,,,4,http://www.town.imakane.lg.jp/,,,,
13935,152180014,北海道,黒松内町,湯の里・黒松内,ユノサト・クロマツナイ,短期入所療養介護（介護老人保健施設）,北海道寿都郡黒松内町字黒松内５６５番１１,,42.657696200000000,140.312945400000000,0136-77-2120,0136-77-2080,5440005002190,社会福祉法人　黒松内つくし園,152180014,,,0,http://www.tukusien.com/,,,,
14231,155880024,北海道,南幌町,介護老人保健施設ゆう,カイゴロウジンホケンシセツユウ,短期入所療養介護（介護老人保健施設）,空知郡南幌町栄町１丁目１番２０号,,43.064254500000000,141.653604800000000,011-378-0091,011-378-0986,9430005006908,医療法人やわらぎ,155880024,,,0,http://yawaragi-info.or.jp,,,,
14281,155880032,北海道,長沼町,介護老人保健施設　マオイの里,カイゴロウジンホケンシセツ　マオイノサト,短期入所療養介護（介護老人保健施設）,夕張郡長沼町東5線北4番地,,43.004610700000000,141.717622100000000,0123-88-1661,0123-88-1662,7430005005903,医療法人社団　恵庭南病院,155880032,,,0,http://www9.plala.or.jp/maoinosato/public_html/,,,,
14281,155880040,北海道,長沼町,長沼町立介護療養型老人保健施設いこい,ナガヌマチョウリツカイゴリョウヨウガタロウジンホケンシセツイコイ,短期入所療養介護（介護老人保健施設）,北海道夕張郡長沼町中央南２丁目２番１号,,43.007639600000000,141.693193500000000,0123-88-1797,0123-88-1798,,長沼町,155880040,,,0,,,,,
14290,155880016,北海道,栗山町,介護老人保健施設ガーデンハウスくりやま,カイゴロウジンホケンシセツガーデンハウスクリヤマ,短期入所療養介護（介護老人保健施設）,夕張郡栗山町朝日4丁目9番33号,,43.055415400000000,141.795287500000000,0123-72-2600,0123-72-2601,8430005000531,社会福祉法人　愛全会,155880016,,,0,http://www.aizenkai.or.jp/,,,,
14273,155880065,北海道,由仁町,由仁町介護老人保健施設ひだまり,ユニチョウカイゴロウジンホケンシセツヒダマリ,短期入所療養介護（介護老人保健施設）,北海道夕張郡由仁町馬追１番地の１,,43.012093200000000,141.780557700000000,0123-76-7735,0123-76-7562,,由仁町,155880065,,,,http://yuni-clinic.com/,,,,
14303,156180036,北海道,月形町,介護老人保健施設　月形緑苑,カイゴロウジンホケンシセツ　ツキガタリョクエン,短期入所療養介護（介護老人保健施設）,北海道樺戸郡月形町81番72,,43.341457600000000,141.682119900000000,0126-53-2222,0126-53-2389,7430005001497,医療法人讃生会,156180036,,,,https://www.sanseikai-med.jp/tsukigataryokuen/,,,,
14338,157480021,北海道,妹背牛町,妹背牛町老人保健施設　りぶれ,モセウシチョウロウジンホケンシセツ　リブレ,短期入所療養介護（介護老人保健施設）,北海道雨竜郡妹背牛町字妹背牛３６１番地２２,,43.692146200000000,141.954159000000000,0164-32-3232,0164-32-2677,,社会福祉法人　雨竜ことぶき会,157480021,,,0,,,,,
14575,153180054,北海道,上川町,上川町立介護老人保健施設つつじ苑,カミカワチョウリツカイゴロウジンホケンシセツツツジエン,短期入所療養介護（介護老人保健施設）,北海道上川郡上川町花園町１７５番地,,43.851715800000000,142.767553600000000,01658-2-1231,01658-2-3908,,上川町,153180054,,,0,,,,,
14532,153180013,北海道,東神楽町,介護老人保健施設　回生苑,カイゴロウジンホケンシセツ　カイセイエン,短期入所療養介護（介護老人保健施設）,上川郡東神楽町東1線2号13番地,,43.718632400000000,142.402042800000000,0166-83-5110,0166-83-5118,,医療法人回生会,153180013,,,0,http://www.kai-sei-kai.com/relation/kaiseien/kaiseien.html,,,,
14541,153180047,北海道,当麻町,介護老人保健施設愛泉苑,カイゴロウジンホケンシセツアイセンエン,短期入所療養介護（介護老人保健施設）,上川郡当麻町3条東2丁目1番11号,,43.827334900000000,142.507390700000000,0166-84-5570,0166-84-5855,7450005000365,医療法人社団　旭豊会,153180047,,,,http://kyokuhoukai.or.jp,,,,
14541,153180062,北海道,当麻町,介護老人保健施設愛泉苑(ユニット型),カイゴロウジンホケンシセツアイセンエンユニットガタ,短期入所療養介護（介護老人保健施設）,上川郡当麻町3条東2丁目1番11号,,43.827319419791900,142.507508717197000,0166-84-5570,0166-84-5855,7450005000365,医療法人社団旭豊会,153180062,,,0,http://kyokuhoukai.or.jp,,,,
14583,153180021,北海道,東川町,老人保健施設ひだまりの里,ロウジンホケンシセツヒダマリノサト,短期入所療養介護（介護老人保健施設）,上川郡東川町西町８丁目２９番１号,,43.700642700000000,142.477231100000000,0166-82-5550,0166-82-5582,1450005000222,社会福祉法人旭川福祉事業会,153180021,,,0,http://www.a-fukushi.or.jp/,,,,
15466,155380025,北海道,清里町,介護老人保健施設きよさと,カイゴロウジンホケンシセツキヨサト,短期入所療養介護（介護老人保健施設）,北海道斜里郡清里町羽衣町３５番地３５,,43.830260900000000,144.592945700000000,0152-22-4830,0152-22-4832,,清里町,155380025,,,0,http://www.town.kiyosato.hokkaido.jp/homepage.nsf/doc/rouken,,,,
15717,153780036,北海道,豊浦町,豊浦町介護老人保健施設,トヨウラチョウカイゴロウジンホケンシセツ,短期入所療養介護（介護老人保健施設）,北海道虻田郡豊浦町字東雲町16番地１,,42.583180700000000,140.715848300000000,0142-83-2408,0142-83-2477,,豊浦町,153780036,,,0,http://www.town.toyoura.hokkaido.jp/,,,,
15750,153780010,北海道,壮瞥町,介護老人保健施設　プライムそうべつ,カイゴロウジンホケンシセツ　プライムソウベツ,短期入所療養介護（介護老人保健施設）,北海道有珠郡壮瞥町字南久保内146番地18,,42.575109800000000,140.964869700000000,0142-65-2001,0142-65-2011,,医療法人　交雄会,153780010,,,0,http://www.koyukai-g.jp/plime-s/,,,,
16071,153880067,北海道,浦河町,介護老人保健施設　浦河緑苑,カイゴロウジンホケンシセツ　ウラカワリョクエン,短期入所療養介護（介護老人保健施設）,北海道浦河郡浦河町字東栄571-3,,42.195343200000000,142.694920800000000,0146-26-3911,0146-26-3915,,医療法人讃生会,153880067,,,,https://www.sanseikai-med.jp/urakawaryokuen/,,,,
16314,154780019,北海道,音更町,介護老人保健施設とかち,カイゴロウジンホケンシセツトカチ,短期入所療養介護（介護老人保健施設）,北海道河東郡音更町緑陽台南区2番地6,,42.963932914213400,143.198659645508000,0155-30-2300,0155-30-5600,4460105000498,公益財団法人北海道医療団,154780019,,,0,http://www.zhi.or.jp,,,,
16314,154780068,北海道,音更町,社会福祉法人手稲ロータス会　介護老人保健施設あんじゅ音更,シャカイフクシホウジンテイネロータスカイ　カイゴロウジンホケンシセツアンジュオトフケ,短期入所療養介護（介護老人保健施設）,北海道河東郡音更町中鈴蘭元町2番地の9,,42.955511500000000,143.190677100000000,0155-30-8211,0155-30-8885,,社会福祉法人手稲ロータス会,154780068,,,0,http://teinelotuskai.com/anju.otofuke/,,,,
16331,154780118,北海道,上士幌町,社会医療法人北斗　介護老人保健施設かみしほろ,シャカイイリョウホウジンホクト　カイゴロウジンホケンシセツカミシホロ,短期入所療養介護（介護老人保健施設）,北海道河東郡上士幌町字上士幌東3線240番73,,43.233456400000000,143.296358300000000,01564-7-7117,01564-7-7105,6460105000364,社会医療法人北斗,154780118,,,,https://www.hokuto7.or.jp/kamishihoro/longterm.html,,,,
16373,154780035,北海道,芽室町,介護老人保健施設りらく,カイゴロウジンホケンシセツリラク,短期入所療養介護（介護老人保健施設）,北海道河西郡芽室町東芽室南2線１６－２,,42.913255200000000,143.093450600000000,0155-61-2266,0155-62-7677,,社会医療法人社団三草会,154780035,,,0,http://www.riraku.jp,,,,
16411,154780027,北海道,大樹町,介護老人保健施設　ケアステーションひかり,カイゴロウジンホケンシセツ　ケアステーションヒカリ,短期入所療養介護（介護老人保健施設）,広尾郡大樹町字大樹１０番地８,,42.502128000000000,143.267089600000000,01558-6-5566,01558-6-5567,1460105001549,社会福祉法人　光寿会,154780027,,,0,http://koujyukai.info/,,,,
16446,174701508,北海道,池田町,池田町小規模介護老人保健施設ぴりか,イケダチョウショウキボカイゴロウジンホケンシセツピリカ,短期入所療養介護（介護老人保健施設）,北海道中川郡池田町字西２条５丁目２５番地,,42.925858000000000,143.447613800000000,015-572-3181,015-572-3185,2010005014562,公益社団法人地域医療振興協会,174701508,,,0,https://jadecom.or.jp/jadecom.tokachi-ikeda,,,,
16438,154780050,北海道,幕別町,社会医療法人博愛会　介護老人保健施設あかしや,シャカイイリョウホウジンハクアイカイ　カイゴロウジンホケンシセツアカシヤ,短期入所療養介護（介護老人保健施設）,北海道中川郡幕別町札内あかしや町42番地10,,42.908328100000000,143.248612700000000,0155-55-4165,0155-55-4166,8460105000362,社会医療法人博愛会,154780050,,,0,http://www.roken-akashiya.org,,,,
16349,154780076,北海道,鹿追町,もみじの里短期入所療養介護事業所,モミジノサトタンキニュウショリョウヨウカイゴジギョウショ,短期入所療養介護（介護老人保健施設）,北海道河東郡鹿追町鹿追北２線８番地３３,,43.095377400000000,142.996542600000000,0156-66-1185,0156-66-1184,2460105001325,社会福祉法人鹿追恵愛会,154780076,,,0,http://www2.shikaoi-keiaikai.jp/momiji/,,,,
16616,154380026,北海道,釧路町,介護老人保健施設ナーシングホームコスモス,カイゴロウジンホケンシセツナーシングホームコスモス,短期入所療養介護（介護老人保健施設）,北海道釧路郡釧路町陸2丁目1番地１０,,43.010614400000000,144.416820000000000,0154-38-5457,0154-38-2390,1460005000361,社会福祉法人　釧路町富喜会,154380026,,,0,http://fuukikai.com/,,,,
16462,154780043,北海道,本別町,介護老人保健施設アメニティ本別,カイゴロウジンホケンシセツアメニティホンベツ,短期入所療養介護（介護老人保健施設）,北海道中川郡本別町西美里別6-18,,43.121652107856900,143.591007291541000,0156-22-9311,0156-22-9322,4460105000358,刀圭会,154780043,,,0,http://www.toukeikai.or.jp,,,,
16471,154780100,北海道,足寄町,医療法人社団　三意会　介護療養型老人保健施設あづまの里,イリョウホウジンシャダン　サンイカイ　カイゴリョウヨウガタロウジンホケンシセツ　アヅマノサト,短期入所療養介護（介護老人保健施設）,北海道足寄郡足寄町南5条3丁目1番･2番,,43.239287400000000,143.548580700000000,0156-25-5050,0156-25-5847,,医療法人社団三意会,154780100,,,2,http://www.san-i-kai.info,,,,
16918,154280010,北海道,別海町,別海町老人保健施設すこやか,ベツカイチョウロウジンホケンシセツスコヤカ,短期入所療養介護（介護老人保健施設）,北海道野付郡別海町別海西本町103番地3,,43.390890700000000,145.123079000000000,0153-75-3226,0153-75-3007,,別海町,154280010,,,,https://betsuka.jp,,,,
12360,151580040,北海道,北斗市,介護老人保健施設やわらぎ苑上磯,カイゴロウジンホケンシセツヤワラギエンカミイソ,短期入所療養介護（介護老人保健施設）,北斗市追分62番23号,,41.829874700000000,140.695954700000000,0138-49-8080,0138-49-8525,,医療法人　やわらぎ会,151580040,,,0,http://www.yawaragikai.com/kaigo/k_yawaragien.html,,,,
12360,151580073,北海道,北斗市,介護老人保健施設いなほ,カイゴロウジンホケンシセツイナホ,短期入所療養介護（介護老人保健施設）,北海道北斗市清水川4番地１介護老人保健施設いなほ,介護老人保健施設いなほ,41.872607300000000,140.653318200000000,0138-77-1700,0138-77-1600,4440005002308,社会福祉法人　雄心会,151580073,,,0,http://yushin-kai.com,,,,
11029,150280014,北海道,札幌市北区,介護老人保健施設　茨戸アカシアハイツ,カイゴロウジンホケンシセツ　バラトアカシアハイツ,短期入所療養介護（介護老人保健施設）,札幌市北区東茨戸2条3丁目2番5号,,43.163716200000000,141.358661500000000,011-773-6255,011-773-6365,3430005000627,社会福祉法人札幌恵友会,150280014,,,0,http://www.keiyu-kai.org,,,,
11061,150580074,北海道,札幌市南区,医療法人　晴生会　介護老人保健施設グラーネ北の沢,イリョウホウジン　セイセイカイ　カイゴロウジンホケンシセツグラーネキタノサワ,短期入所療養介護（介護老人保健施設）,札幌市南区北ノ沢1804番52,,43.007950100000000,141.308230600000000,011-572-2002,011-572-2008,9050005006021,医療法人　晴生会,150580074,,,20,,,,,
11045,150380012,北海道,札幌市白石区,介護老人保健施設コミュニティホーム白石,カイゴロウジンホケンシセツ　コミュニティホームシロイシ,短期入所療養介護（介護老人保健施設）,札幌市白石区本郷通３丁目南１番３５号,,43.046102125528300,141.404105557672000,011-864-5321,011-864-9590,5430005000583,社会福祉法人渓仁会,150380012,,,,http://www.keijinkai.com/c-shiroishi/,,,,
11096,150480028,北海道,札幌市手稲区,介護老人保健施設　愛の里,カイゴロウジンホケンシセツ　アイノサト,短期入所療養介護（介護老人保健施設）,北海道札幌市手稲区西宮の沢1条4丁目14番5号,,43.107115200000000,141.262920700000000,011-681-6678,011-685-6682,,社会福祉法人　緑誠会,150480028,,,,http://www.tanakamedical.net/ainosato/index.html,,,,
11011,170103675,北海道,札幌市中央区,介護老人保健施設けあ・ばんけい,カイゴロウジンホケンシセツケア・バンケイ,短期入所療養介護（介護老人保健施設）,北海道札幌市中央区盤渓２３２番地7,,43.032658100000000,141.277248500000000,011-615-9623,011-615-2334,5430005002019,社会医療法人社団カレスサッポロ,170103675,,,0,http://www.carebankei.jp/,,,,
11011,150180032,北海道,札幌市中央区,慈啓会老人保健施設,ジケイカイロウジンホケンシセツ,短期入所療養介護（介護老人保健施設）,札幌市中央区旭ヶ丘5丁目6-48,,43.036242400000000,141.322525200000000,011-520-8085,011-520-8092,3430005000635,札幌慈啓会,150180032,,,0,http://www.sapporojikeikai.or.jp,,,,
11037,150280089,北海道,札幌市東区,医療法人　徳洲会　介護老人保健施設　徳洲苑なえぼ,イリョウホウジン　トクシュウカイ　カイゴロウジンホケンシセツ　トクシュウエンナエボ,短期入所療養介護（介護老人保健施設）,北海道札幌市東区北7条東18丁目2番30号,,43.075270000000000,141.381296000000000,011-753-0011,011-753-6633,1120005005403,医療法人徳洲会,150280089,,,0,http://naebo-rouken.com/,,,,
11061,150380079,北海道,札幌市南区,介護老人保健施設アートヒルズ,カイゴロウジンホケンシセツアートヒルズ,短期入所療養介護（介護老人保健施設）,北海道札幌市南区石山８３７番地４７,,42.958806800000000,141.340671500000000,011-592-8500,011-592-7785,4430005001434,医療法人愛全会,150380079,,,0,http://www.aizenkai.or.jp,,,,
11061,150580025,北海道,札幌市南区,介護老人保健施設　フォーシーズン真駒内,カイゴロウジンホケンシセツ　フォーシーズンマコマナイ,短期入所療養介護（介護老人保健施設）,北海道札幌市南区真駒内南町4丁目3番3号,,42.980674000000000,141.351908500000000,011-588-1200,011-582-1500,,医療法人社団　栄会,150580025,,,0,http://fourseason.or.jp/,,,,
11088,150380038,北海道,札幌市厚別区,介護老人保健施設ナーシングヴィラ大谷地,カイゴロウジンホケンシセツナーシングウ゛ィラオオヤチ,短期入所療養介護（介護老人保健施設）,札幌市厚別区大谷地東５丁目７番１０号,,43.022719800000000,141.458319000000000,011-892-3737,011-892-5861,3430005001476,医療法人　重仁会,150380038,,,,http://www.ohyachi-hp.or.jp/villa/,,,,
11100,150380061,北海道,札幌市清田区,介護老人保健施設げんきのでる里,カイゴロウジンホケンシセツ　ゲンキノデルサト,短期入所療養介護（介護老人保健施設）,札幌市清田区真栄434番地6,,42.972199600000000,141.432388600000000,011-885-8877,011-885-7335,3430005000585,社会福祉法人ノテ福祉会,150380061,,,0,http://www.note.or.jp/facilities/type/15/,,,,
11011,150180040,北海道,札幌市中央区,老人保健施設　えん,ロウジンホケンシセツ　エン,短期入所療養介護（介護老人保健施設）,札幌市中央区宮の森１２３８番地１,,43.038713200000000,141.287467100000000,011-611-5522,011-611-1120,3430005001633,医療法人社団恵和会,150180040,,,0,http://www.miyanomori-hp.or.jp/,,,,
11011,150180057,北海道,札幌市中央区,介護老人保健施設　フォーシーズン山鼻,カイゴロウジンホケンシセツ　フォーシーズンヤマハナ,短期入所療養介護（介護老人保健施設）,北海道札幌市中央区南１７条西９丁目１-１３,,43.037158900000000,141.346633200000000,011-561-1200,011-561-1277,,栄会,150180057,,,3,http://fourseason.or.jp/,,,,
11029,150280055,北海道,札幌市北区,介護老人保健施設　セージュ新ことに,カイゴロウジンホケンシセツ　セージュシンコトニ,短期入所療養介護（介護老人保健施設）,札幌市北区新琴似町７８７番地２，３,,43.130885500000000,141.295524500000000,011-768-2800,011-768-2801,,医療法人　耕仁会,150280055,,,2,http://www.seijyu-shin.jp/,,,,
11029,150280063,北海道,札幌市北区,介護老人保健施設札幌北翔館そとこと,カイゴロウジンホケンシセツサッポロホクショウカンソトコト,短期入所療養介護（介護老人保健施設）,札幌市北区屯田９条３丁目３番地２,,43.143107000000000,141.341194500000000,011-773-7200,011-773-7211,9430005006692,医療法人　北翔会,150280063,,,0,http://www.hokushokai.or.jp/sotokoto/,,,,
11029,150280097,北海道,札幌市北区,介護老人保健施設ら・ぱーす,カイゴロウジンホケンシセツラ・パース,短期入所療養介護（介護老人保健施設）,北海道札幌市北区篠路町上篠路6番286,,43.130332100000000,141.382314100000000,011-774-1131,011-774-1818,,社会医療法人禎心会,150280097,,,0,http://www.teishinkai.jp,,,,
11029,150280113,北海道,札幌市北区,介護老人保健施設プラットホーム,カイゴロウジンホケンシセツプラットホーム,短期入所療養介護（介護老人保健施設）,北海道札幌市北区あいの里２条１丁目２０－１,,43.159531900000000,141.385192700000000,011-776-3037,011-776-3039,8430005001620,社会医療法人社団愛心館,150280113,,,0,http://www.aishinkan.jp/platform,,,,
11029,150280139,北海道,札幌市北区,介護老人保健施設サンビオーズ新琴似,カイゴロウジンホケンシセツサンビオーズシンコトニ,短期入所療養介護（介護老人保健施設）,北海道札幌市北区新琴似2条5丁目1-1,,43.106562900000000,141.320834100000000,011-763-9300,011-763-9301,9050005006021,晴生会,150280139,,,0,,,,,
11037,150280022,北海道,札幌市東区,介護老人保健施設もえれパークサイド,カイゴロウジンホケンシセツモエレパークサイド,短期入所療養介護（介護老人保健施設）,札幌市東区中沼町１０５－４３,,43.128798200000000,141.421330200000000,011-791-2311,011-791-2313,2430005001799,社会医療法人社団三草会,150280022,,,0,https://www.moereparkside.jp/,,,,
11037,150280030,北海道,札幌市東区,介護老人保健施設おおぞら,カイゴロウジンホケンシセツオオゾラ,短期入所療養介護（介護老人保健施設）,札幌市東区丘珠町167-10,,43.107618900000000,141.384859700000000,011-786-0020,011-786-2265,7430005001902,医療法人　とこはる,150280030,,,0,http://www.touei.or.jp/oozora/service.htm,,,,
11037,150280048,北海道,札幌市東区,介護老人保健施設　さっぽろ東ナーシング,カイゴロウジンホケンシセツ　サッポロヒガシナーシング,短期入所療養介護（介護老人保健施設）,札幌市東区丘珠町291番地3,,43.116312500000000,141.397352500000000,011-785-8200,011-785-8778,7430005005688,医療法人友愛会,150280048,,,0,http://www.h-nashing.jp,,,,
11037,150280071,北海道,札幌市東区,医療法人社団豊生会　介護老人保健施設ひまわり,イ）シャダンホウセイカイカイゴロウジンホケンシセツヒマワリ,短期入所療養介護（介護老人保健施設）,札幌市東区東苗穂3条1丁目2-18,,43.088185700000000,141.399573700000000,011-781-8800,011-781-8822,2430005001997,医療法人社団　豊生会,150280071,,,0,http://www.houseikai.or.jp/,,,,
11037,150280121,北海道,札幌市東区,介護老人保健施設あすかＨＯＵＳＥ東苗穂,カイゴロウジンホケンシセツアスカハウスヒガシナエボ,短期入所療養介護（介護老人保健施設）,北海道札幌市東区東苗穂6条3丁目11番55号,,43.089822000000000,141.412961100000000,011-789-0100,011-789-0200,,医療法人社団　明日佳,150280121,,,0,http://www.asuka-gp.or.jp/asukahouse/,,,,
11070,150480010,北海道,札幌市西区,介護老人保健施設セージュ山の手,カイゴロウジンホケンシセツ　セージュヤマノテ,短期入所療養介護（介護老人保健施設）,北海道札幌市西区山の手4条5丁目3-1,,43.070456100000000,141.294003500000000,011-614-2111,011-614-8444,2430005001452,医療法人耕仁会,150480010,,,0,http://www.seijyu-yama.jp/,,,,
11070,150480077,北海道,札幌市西区,介護老人保健施設　エル・クォール平和,カイゴロウジンホケンシセツ　エルクォールヘイワ,短期入所療養介護（介護老人保健施設）,札幌市西区平和２条１１丁目２番５号,,43.056720500000000,141.243830000000000,011-667-8111,011-667-8121,7430005001811,医療法人社団　静和会,150480077,,,0,http://www.seiwa-kai.or.jp/elqol,,,,
11070,150480085,北海道,札幌市西区,介護老人保健施設ぴあケアさくら,カイゴロウジンホケンシセツピアケアサクラ,短期入所療養介護（介護老人保健施設）,札幌市西区小別沢９７番地,,43.049041600000000,141.267034300000000,011-668-2777,011-668-2772,3430005000610,社会福祉法人宮の沢福祉会,150480085,,,0,http://piacare.sub.jp/,,,,
11070,150480119,北海道,札幌市西区,介護老人保健施設平和の杜,カイゴロウジンホケンシセツヘイワノモリ,短期入所療養介護（介護老人保健施設）,北海道札幌市西区平和420番地,,43.057811800000000,141.225942700000000,011-668-2020,011-668-2525,6430005012867,社会福祉法人杜の会,150480119,,,0,https://www.morinokai1001.jp/,,,,
11053,150380020,北海道,札幌市豊平区,介護老人保健施設　アメニティ西岡,カイゴロウジンホケンシセツ　アメニティニシオカ,短期入所療養介護（介護老人保健施設）,札幌市豊平区西岡４条４丁目１番５号,,43.016256900000000,141.389189800000000,011-854-5510,011-854-3425,7430005001448,社会医療法人恵和会,150380020,,,0,http://www.keiwakai.jp/,,,,
11053,150580017,北海道,札幌市豊平区,北海道病院附属介護老人保健施設,ホッカイドウビョウインフゾクカイゴロウジンホケンシセツ,短期入所療養介護（介護老人保健施設）,札幌市豊平区中の島1条8丁目3番18号,,43.025345969506900,141.355601102377000,011-813-2222,011-813-3833,6040005003798,独立行政法人地域医療機能推進機構,150580017,,,0,https://hokkaido.jcho.go.jp/rouken/,,,,
11053,150580033,北海道,札幌市豊平区,介護老人保健施設　豊平北翔館　豊翔の郷,カイゴロウジンホケンシセツ　トヨヒラホクショウカン　ホウショウノサト,短期入所療養介護（介護老人保健施設）,札幌市豊平区旭町５丁目５－１,,43.044594572714100,141.366717359524000,011-837-7500,011-837-7501,9430005006692,医療法人　北翔会,150580033,,,0,http://www.hokushokai.or.jp,,,,
11053,150580066,北海道,札幌市豊平区,介護老人保健施設福住の丘,カイゴロウジンホケンシセツフクズミノオカ,短期入所療養介護（介護老人保健施設）,北海道札幌市豊平区月寒西1条11丁目3－10,,43.023211900000000,141.398280300000000,011-857-7800,011-857-7801,8430005005877,医療法人資生会,150580066,,,0,http://www.siseikai.or.jp,,,,
11061,150180016,北海道,札幌市南区,介護老人保健施設　リラコート愛全,カイゴロウジンホケンシセツ　リラコートアイゼン,短期入所療養介護（介護老人保健施設）,札幌市南区川沿13条2丁目4-45,,42.978384800000000,141.333815800000000,011-571-7151,011-572-5657,4430005001434,医療法人　愛全会,150180016,,,0,http://www.aizenkai.or.jp,,,,
11061,150580082,北海道,札幌市南区,介護老人保健施設　フォーシーズン南34条,カイゴロウジンホケンシセツ　フォーシーズンミナミ34ジョウ,短期入所療養介護（介護老人保健施設）,北海道札幌市南区南34条西10丁目3番35号,,43.012623415698700,141.347441062098000,011-581-1200,011-581-1201,,栄会,150580082,,,0,http://fourseason.or.jp/,,,,
11045,150380103,北海道,札幌市白石区,介護老人保健施設　生きがい,カイゴロウジンホケンシセツ　イキガイ,短期入所療養介護（介護老人保健施設）,札幌市白石区北郷2条11丁目3番20号,,43.050196500000000,141.432906100000000,011-871-2001,011-871-2003,4430005001707,医療法人社団　弘恵会,150380103,,,0,http://www.kokeikai.com,,,,
11045,150380137,北海道,札幌市白石区,勤医協老人保健施設柏ヶ丘,キンイキョウロウジンホケンシセツカシワガオカ,短期入所療養介護（介護老人保健施設）,札幌市白石区平和通7丁目南5-１勤医協老人保健施設　柏ヶ丘,勤医協老人保健施設　柏ヶ丘,43.047087700000000,141.417274400000000,011-865-0010,011-865-9538,,公益社団法人北海道勤労者医療協会,150380137,,,0,http://www.rouken-kashiwa.jp/,,,,
11088,150380087,北海道,札幌市厚別区,介護老人保健施設あつべつ,カイゴロウジンホケンシセツアツベツ,短期入所療養介護（介護老人保健施設）,札幌市厚別区厚別町山本750番地6号,,43.058543900000000,141.462566900000000,011-896-5020,011-896-5055,7430005000540,社会福祉法人栄和会,150380087,,,0,http://www.eiwakai.or.jp/,,,,
11088,150380095,北海道,札幌市厚別区,医療法人徳洲会　介護老人保健施設コスモス,イリョウホウジントクシュウカイ　カイゴロウジンホケンシセツコスモス,短期入所療養介護（介護老人保健施設）,札幌市厚別区厚別町山本１０６３―２８,,43.067156700000000,141.460436100000000,011-895-1110,011-895-1107,1120005005403,医療法人　徳洲会,150380095,,,0,http://www.cosmoskaigo.com/,,,,
11096,150480036,北海道,札幌市手稲区,介護老人保健施設　ほくと,カイゴロウジンホケンシセツ　ホクト,短期入所療養介護（介護老人保健施設）,札幌市手稲区手稲山口550番2,,43.141493100000000,141.210103000000000,011-681-5556,011-681-7986,2430005001519,医療法人　北武会,150480036,,,0,http://www.hokubukai.or.jp/,,,,
11096,150480051,北海道,札幌市手稲区,手稲あんじゅ（介護予防）短期入所療養介護事業所,テイネアンジュカイゴヨボウタンキニュウショリョウヨウカイゴジギョウショ,短期入所療養介護（介護老人保健施設）,札幌市手稲区稲穂5条2丁目6番1号介護老人保健施設　手稲あんじゅ,介護老人保健施設　手稲あんじゅ,43.117568700000000,141.227803000000000,011-685-8200,011-685-8300,7430005000581,社会福祉法人　手稲ロータス会,150480051,,,,http://teinelotuskai.com/,,,,
11100,150580058,北海道,札幌市清田区,介護老人保健施設　清田北翔館　まいあの里,カイゴロウジンホケンシセツ　キヨタホクショウカン　マイアノサト,短期入所療養介護（介護老人保健施設）,札幌市清田区里塚２条４丁目２番５３号,,42.984099100000000,141.463818500000000,011-885-6540,011-885-6544,9430005006692,医療法人　北翔会,150580058,,,0,http://www.hokushokai.or.jp/maianosato/,,,,
22080,250880010,青森県,むつ市,介護老人保健施設　はまなす苑,カイゴロウジンホケンシセツ　ハマナスエン,短期入所療養介護（介護老人保健施設）,青森県むつ市大字奥内字金谷沢1-167,,41.232065800000000,141.247462300000000,0175-26-3333,0175-26-3600,8420005006298,介護老人保健施設　はまなす苑,250880010,,,,,,,,
22080,250880028,青森県,むつ市,むつ市介護老人保健施設やげん,ムツシカイゴロウジンホケンシセツヤゲン,短期入所療養介護（介護老人保健施設）,青森県むつ市大畑町観音堂２５－１,,41.399487000000000,141.157319700000000,0175-34-2211,0175-34-2213,,医療法人章士会,250880028,,,0,,,,,
22012,250180007,青森県,青森市,介護老人保健施設　青森ナーシングライフ,カイゴロウジンホケンシセツ　アオモリナーシングライフ,短期入所療養介護（介護老人保健施設）,青森県青森市大字矢田前字弥生田４７－２,,40.829230700000000,140.808478700000000,017-726-5211,017-726-9600,5420005000386,社会福祉法人　恵寿福祉会,250180007,,,2,http://www.keiju-w.or.jp/,,,,
22012,250180015,青森県,青森市,ユニット型介護老人保健施設　青照苑,ユニットガタカイゴロウジンホケンシセツ　セイショウエン,短期入所療養介護（介護老人保健施設）,青森市羽白字野木和４５,,40.847319900000000,140.678954700000000,017-788-3000,017-788-3295,5420005000543,一般社団法人　慈恵会,250180015,,,100,http://www.jikei-kai.org,,,,
22012,250180023,青森県,青森市,社会福祉法人諏訪ノ森会　介護老人保健施設いちい荘,シャカイフクシホウジンスワノモリカイ　カイゴロウジンホケンシセツイチイソウ,短期入所療養介護（介護老人保健施設）,青森県青森市大字諏訪沢字丸山７２番地,,40.821637900000000,140.833045900000000,017-726-3855,017-726-3859,,社会福祉法人　諏訪ノ森会,250180023,,,100,http://www.suwanomorikai.or.jp,,,,
22012,250180049,青森県,青森市,青森南老人保健施設甲田苑,アオモリミナミロウジンホケンシセツコウダエン,短期入所療養介護（介護老人保健施設）,青森県青森市大字横内字亀井２５９－２,,40.769083000000000,140.770053400000000,017-728-3939,017-728-3940,,医療法人養仁会,250180049,,,,,,,,
22012,250180056,青森県,青森市,老人保健施設　すずかけの里,ロウジンホケンシセツ　スズカケノサト,短期入所療養介護（介護老人保健施設）,青森県青森市里見2丁目13番１号,,40.815616200000000,140.713356000000000,017-761-1111,017-761-1112,,社会福祉法人　すずかけの里,250180056,,,0,www.amc-headquarters-med.or.jp,,,,
22012,250180072,青森県,青森市,医療法人芙蓉会　介護老人保健施設ニューライフ芙蓉,イリョウホウジン　フヨウカイカイゴロウジンホケンシセツニュウライフフヨウ,短期入所療養介護（介護老人保健施設）,青森県青森市妙見３丁目１１番地の１４,,40.788439400000000,140.763345100000000,017-728-2200,017-728-2203,,医療法人　芙蓉会,250180072,,,0,http://www.fuyoukai.or.jp/,,,,
22012,250180098,青森県,青森市,介護老人保健施設ケア・ガーデン青森,カイゴロウジンホケンシセツケアガーデンアオモリ,短期入所療養介護（介護老人保健施設）,青森市古館1丁目2-1,,40.806274300000000,140.779295900000000,017-744-3311,017-744-3316,,医療法人北翔会,250180098,,,0,http://www.hokushoukai.com/,,,,
22012,250180155,青森県,青森市,介護老人保健施設なみおか,カイゴロウジンホケンシセツナミオカ,短期入所療養介護（介護老人保健施設）,青森県青森市浪岡杉沢字山元454-238,,40.726128700000000,140.580791100000000,0172-69-1120,0172-62-1210,,社会福祉法人　桐栄会,250180155,,,0,,,,,
22012,250180106,青森県,青森市,老人保健施設カトレア,カトレア,短期入所療養介護（介護老人保健施設）,青森県青森市大字高田字川瀬１１０－１,,40.761683200000000,140.720927500000000,017-739-6100,017-739-3636,9420005000424,社会福祉法人　平元会,250180106,,,0,http://heigenkai.jp/,,,,
22021,250280005,青森県,弘前市,老人保健施設ケアセンター弘前,ロウジンホケンシセツケアセンターヒロサキ,短期入所療養介護（介護老人保健施設）,青森県弘前市山崎一丁目３番地７,,40.574184400000000,140.471954700000000,0172-87-0111,0172-87-0171,,社会福祉法人　津軽富士見会,250280005,,,0,http://tsugarufujimikai.com/,,,,
22021,250280054,青森県,弘前市,介護老人保健施設　幸陽荘,カイゴロウジンホケンシセツ　コウヨウソウ,短期入所療養介護（介護老人保健施設）,青森県弘前市清野袋字岡部433-1,,40.636345900000000,140.483210800000000,0172-37-8311,0172-37-8313,,社会福祉法人　誠風会,250280054,,,0,http://koyoso.com/,,,,
22021,250280062,青森県,弘前市,介護老人保健施設　希望ヶ丘ホーム,カイゴロウジンホケンシセツ　キボウガオカホーム,短期入所療養介護（介護老人保健施設）,青森県弘前市大字小沢字山崎４４－９,,40.566256200000000,140.451991800000000,0172-87-6655,0172-87-6658,,社会福祉法人　博陽会,250280062,,,2,http://kibogaoka.net,,,,
22021,250280021,青森県,弘前市,介護老人保健施設　弘前リカバリーセンター,カイゴロウジンホケンシセツヒロサキリカバリーセンター,短期入所療養介護（介護老人保健施設）,青森県弘前市高田1丁目１０－７,,40.598167600000000,140.499580900000000,0172-27-3322,0172-27-3324,,医療法人　鶴豊会,250280021,,,,https:recovery-center.jp,,,,
22021,250280039,青森県,弘前市,介護老人保健施設　ヴィラ弘前,カイゴロウジンホケンシセツ　ウ゛ィラヒロサキ,短期入所療養介護（介護老人保健施設）,青森県弘前市大字岩賀２丁目１２－１１,,40.644575200000000,140.474752500000000,0172-37-7300,0172-37-7303,,医療法人　サンメディコ,250280039,,,0,http://villahiro7300.ec-net.jp,,,,
22021,250280070,青森県,弘前市,介護老人保健施設　ふじ苑,カイゴロウジンホケンシセツ　フジエン,短期入所療養介護（介護老人保健施設）,青森県弘前市大字土堂字長瀬385－1,,40.620641200000000,140.450186000000000,0172-38-5550,0172-38-5525,1420005004399,社会福祉法人桜友会,250280070,,,0,,,,,
22021,252280003,青森県,弘前市,介護老人保健施設　鳥井野荘,カイゴロウジンホケンシセツ　トリイノソウ,短期入所療養介護（介護老人保健施設）,青森県弘前市大字鳥井野字長田265番地,,40.599875800000000,140.413784100000000,0172-82-5600,0172-82-5604,,医療法人　いわき会,252280003,,,0,http://toriinoso.jp/,,,,
22039,250380003,青森県,八戸市,介護老人保健施設はくじゅ,カイゴロウジンホケンシセツハクジュ,短期入所療養介護（介護老人保健施設）,青森県八戸市河原木字北沼２２－３９,,40.552333900000000,141.484859000000000,0178-28-4001,0178-28-4390,1420005002667,公益財団法人シルバーリハビリテーション協会,250380003,,,0,http://sg-hakuju.com/,,,,
22039,250380011,青森県,八戸市,介護老人保健施設　ひばりの里,カイゴロウジンホケンシセツ　ヒバリノサト,短期入所療養介護（介護老人保健施設）,青森県八戸市大字是川字雲畑９－２,,40.459870500000000,141.471505500000000,0178-96-1212,0178-96-1272,,社会福祉法人　愛桂会,250380011,,,0,,,,,
22039,250380052,青森県,八戸市,介護老人保健施設　南山苑,カイゴロウジンホケンシセツ　ナンザンエン,短期入所療養介護（介護老人保健施設）,青森県八戸市大字田面木字赤坂24-1,,40.500006900000000,141.455097500000000,0178-27-3027,0178-46-5222,,医療法人　青仁会,250380052,,,10,http://www.seijin.or.jp/,,,,
22039,250380060,青森県,八戸市,ナーシングホームオリーブ,ナーシングホームオリーブ,短期入所療養介護（介護老人保健施設）,八戸市湊高台二丁目４－６,,40.507124200000000,141.537629500000000,0178-31-5500,0178-31-5502,6420005002753,医療法人　平成会,250380060,,,100,http://www.heiwa-hp.or.jp/olv/olv.html,,,,
22039,252780002,青森県,八戸市,介護老人保健施設　南郷メディエルデプラザ,カイゴロウジンホケンシセツ　ナンゴウメディエルデプラザ,短期入所療養介護（介護老人保健施設）,青森県八戸市南郷大字島守字阿庄内15番地6,,40.406944617338100,141.456161950926000,0178-82-2000,0178-82-2872,,医療法人　南六会,252780002,,,0,,,,,
22039,250380029,青森県,八戸市,サンライフ豊寿苑,サンライフホウジュエン,短期入所療養介護（介護老人保健施設）,青森県八戸市石堂一丁目14-11,,40.529592300000000,141.480563000000000,0178-29-3232,0178-29-3233,5420005002746,医療法人社団豊仁会,250380029,,,0,http://www.jouhoku-hp.jp/,,,,
22047,250480001,青森県,黒石市,介護老人保健施設「あしたばの里・黒石」,カイゴロウジンホケンシセツ「アシタバノサト・クロイシ」,短期入所療養介護（介護老人保健施設）,青森県黒石市末広6番地1,,40.661779600000000,140.595772400000000,0172-53-1213,0172-53-1214,9420005004953,医療法人　済寿会,250480001,,,4,http://www.ashitabanosato.jp,,,,
22055,250580008,青森県,五所川原市,介護老人保健施設緑風苑,カイゴロウジンホケンシセツ　リョクフウエン,短期入所療養介護（介護老人保健施設）,青森県五所川原市金山字竹崎254,,40.807114300000000,140.475018000000000,0173-33-4155,0173-33-4187,6420005003504,医療法人白生会,250580008,,,0,http://ryoku.hakuseikai.com/,,,,
22063,250680014,青森県,十和田市,老人保健施設　みのり苑,ロウジンホケンシセツ　ミノリエン,短期入所療養介護（介護老人保健施設）,青森県十和田市大字切田字横道100-22,,40.569330600000000,141.192791100000000,0176-25-1100,0176-25-1115,,社会福祉法人　福祉の里,250680014,,,0,http://www.fukushinosato.com,,,,
22063,250680048,青森県,十和田市,介護老人保健施設とわだ,カイゴロウジンホケンシセツトワダ,短期入所療養介護（介護老人保健施設）,青森県十和田市大字洞内字長田60-6,,40.665989300000000,141.181886500000000,0176-27-3131,0176-27-3139,2420005002963,社会福祉法人みやぎ会,250680048,,,0,https://www.facebook.com/sgtowada/,,,,
22063,250680055,青森県,十和田市,介護老人保健施設ハートランド,カイゴロウジンホケンシセツ　ハートランド,短期入所療養介護（介護老人保健施設）,十和田市大字相坂字高清水78-450,,40.621681300000000,141.255791300000000,0176-25-0122,0176-25-0033,,仁泉会,250680055,,,0,heart@sg-heart.or.jp,,,,
22071,250780004,青森県,三沢市,老人保健施設　やすらぎ苑,ロウジンホケンシセツヤスラギエン,短期入所療養介護（介護老人保健施設）,青森県三沢市大字三沢字淋代平１１６－３０９７,,40.745633400000000,141.374562100000000,0176-59-3784,0176-59-3786,7420005006027,社会福祉法人　同仁会,250780004,,,0,www.dohjinkai-aomori.or.jp/yasuragi,,,,
22080,250880002,青森県,むつ市,老人保健施設シルバーケアセンターむつ,ロウジンホケンシセツシルバーケアセンタームツ,短期入所療養介護（介護老人保健施設）,青森県むつ市中央一丁目１８番１号,,41.294087200000000,141.183942100000000,0175-22-9925,0175-22-9928,,医療法人顕仁会,250880002,,,0,,,,,
23078,252080007,青森県,外ヶ浜町,外ヶ浜町介護老人保健施設たんぽぽ,ソトガハママチカイゴロウジンホケンシセツタンポポ,短期入所療養介護（介護老人保健施設）,青森県東津軽郡外ヶ浜町下蟹田４２番地１,,41.042190200000000,140.639959000000000,0174-22-3070,0174-22-3270,,外ヶ浜町,252080007,,,0,,,,,
23213,252180013,青森県,鰺ヶ沢町,老人保健施設ながだい荘,ロウジンホケンシセツ　ナガダイソウ,短期入所療養介護（介護老人保健施設）,青森県西津軽郡鯵ヶ沢町大字長平町字甲音羽山６５－４１２,,40.711868100000000,140.287495500000000,0173-72-1122,0173-72-1118,,社会福祉法人　音羽会,252180013,,,,http://otowakai.or.jp/,,,,
23612,252380001,青森県,藤崎町,医療法人　ときわ会　介護老人保健施設　明生園,イリョウホウジン　トキワカイ　カイゴロウジンホケンシセツ　メイセイエン,短期入所療養介護（介護老人保健施設）,青森県南津軽郡藤崎町大字榊字亀田2-1,,40.672837500000000,140.533038000000000,0172-65-4066,0172-65-4068,,医療法人　ときわ会,252380001,,,0,http://www.tokiwakai.or.jp/,,,,
23841,252480017,青森県,鶴田町,介護老人保健施設　湖水荘,カイゴロウジンホケンシセツ　コスイソウ,短期入所療養介護（介護老人保健施設）,青森県北津軽郡鶴田町大字廻堰字東下山９１番地２,,40.758080800000000,140.387493500000000,0173-22-5694,0173-22-5876,8420005003551,社会福祉法人桂久会,252480017,,,0,,,,,
24015,252580014,青森県,野辺地町,介護老人保健施設　えぼし,カイゴロウジンホケンシセツ　エボシ,短期入所療養介護（介護老人保健施設）,青森県上北郡野辺地町字川目88-1,,40.834922100000000,141.132013500000000,0175-65-2666,0175-65-2668,4420005006013,医療法人藤仁会,252580014,,,0,www.tenjuen.net,,,,
24015,252580030,青森県,野辺地町,介護老人保健施設　のへじ,カイゴロウジンホケンシセツ　ノヘジ,短期入所療養介護（介護老人保健施設）,青森県上北郡野辺地町字餅粟川原4,,40.854234100000000,141.127852200000000,0175-65-2333,0175-65-1808,,社会福祉法人　福祉の里,252580030,,,0,http://www.fukushinosato.com,,,,
24023,252580006,青森県,七戸町,介護老人保健施設　ナーシングセンター柏葉,カイゴロウジンホヘンシセツ　ナーシングセンターカシワバ,短期入所療養介護（介護老人保健施設）,青森県上北郡七戸町字笊田川久保100-1,,40.697898500000000,141.159810200000000,0176-62-2200,0176-62-6214,,医療法人　健仁会,252580006,,,10,http：//kenjinkaikashiwaba.jp,,,,
24112,272502022,青森県,六ヶ所村,六ヶ所村介護老人保健施設ニッコウキスゲ,ロッカショムラカイゴロウジンホケンシセツニッコウキスゲ,短期入所療養介護（介護老人保健施設）,青森県上北郡六ヶ所村大字尾駮字野附986-4,,40.965005300000000,141.374944000000000,0175-73-7200,0175-72-3267,2010005014562,公益社団法人　地域医療振興協会,272502022,,,0,http://rokkasyo.jadecom.or.jp,,,,
24244,252680004,青森県,東通村,東通村介護老人保健施設「のはなしょうぶ」,ヒガシドオリムラカイゴロウジンホケンシセツ「ノハナショウブ」,短期入所療養介護（介護老人保健施設）,青森県下北郡東通村砂子又字里１７番地２,,41.276656800000000,141.337477400000000,0175-28-5400,0175-28-5401,2010005014562,公益社団法人　地域医療振興協会,252680004,,,0,http://www.jadecom.or.jp/,,,,
24414,252780044,青森県,三戸町,老人保健施設ほほえみ三戸,ロウジンホケンシセツホホエミサンノヘ,短期入所療養介護（介護老人保健施設）,青森県三戸郡三戸町大字同心町字諏訪内１０番地,,40.375942700000000,141.253348900000000,0179-23-5050,0179-23-5252,9420005003063,社会福祉法人仁正会,252780044,,,0,,,,,
24431,252780051,青森県,田子町,田子町介護老人保健施設　老健たっこ,タッコマチカイゴロウジンホケンシセツロウケンタッコ,短期入所療養介護（介護老人保健施設）,青森県三戸郡田子町大字田子字前田２－１７,,40.341053100000000,141.154507900000000,0179-32-3172,0179-32-3334,,田子町,252780051,,,0,,,,,
24457,252780010,青森県,南部町,介護老人保健施設　孔明荘,カイゴロウジンホケンシセツ　コウメイソウ,短期入所療養介護（介護老人保健施設）,青森県三戸郡南部町大字苫米地字蒼前11-1,,40.466707100000000,141.388137800000000,0178-84-3333,0178-84-3005,5420005002936,社会福祉法人水鏡会,252780010,,,0,http://komeisou.or.jp/,,,,
24457,252780069,青森県,南部町,介護老人保健施設なんぶ　短期入所療養介護,カイゴロウジンホケンシセツナンブ　タンキニュウショリョウヨウカイゴ,短期入所療養介護（介護老人保健施設）,青森県三戸郡南部町沖田面字千刈３２－１,,40.411826846524900,141.280854818385000,0179-34-3260,0179-34-3259,4420005002929,社会福祉法人長老会,252780069,,,,,,,,
24503,252780028,青森県,新郷村,医療法人仁泉会　介護老人保健施設しんごう,イリョウホウジンジンセンカイ　カイゴロウジンホケンシセツシンゴウ,短期入所療養介護（介護老人保健施設）,青森県三戸郡新郷村大字戸来字金ヶ沢森ノ下24,,40.470056000000000,141.178185400000000,0178-78-3181,0178-78-3184,,医療法人　仁泉会,252780028,,,0,,,,,
22101,252380019,青森県,平川市,介護老人保健施設三笠ケアセンター,カイゴロウジンホケンシセツミカサケアセンター,短期入所療養介護（介護老人保健施設）,青森県平川市館田西和田195番地,,40.586631600000000,140.539438700000000,0172-44-8811,0712-44-8822,,社会福祉法人　三笠苑,252380019,,,0,http://www.mikasaen-hp.com/,,,,
22101,252380027,青森県,平川市,介護老人保健施設のぞみ,カイゴロウジンホケンシセツノゾミ,短期入所療養介護（介護老人保健施設）,青森県平川市李平上山崎54-1,,40.621070900000000,140.592693800000000,0172-57-5100,0172-57-5105,9420005004961,医療法人みらい会,252380027,,,0,https://www.miraikai.cloud-line.com,,,,
22101,252380043,青森県,平川市,一般財団法人　黎明郷　介護老人保健施設　つがる,イッパンザイダンホウジン　レイメイキョウ　カイゴロウジンホケンシセツ　ツガル,短期入所療養介護（介護老人保健施設）,青森県平川市碇ヶ関湯向川添30番地,,40.478505300000000,140.626042800000000,0172-45-3525,0172-45-9550,8420005005234,一般財団法人　黎明郷,252380043,,,0,http://www.reimeikyou.jp/tsugaru/index.html,,,,
24121,252580022,青森県,おいらせ町,介護老人保健施設しもだ,カイゴロウジンホケンシセツシモダ,短期入所療養介護（介護老人保健施設）,青森県上北郡おいらせ町山崎2592-7,,40.614138500000000,141.401954200000000,0178-56-4888,0178-56-4886,,医療法人　仁泉会,252580022,,,,,,,,
32051,370501009,岩手県,花巻市,イ－ハト－ブ介護リハビリセンタ－,イ－ハト－ブカイゴリハビリセンタ－,短期入所療養介護（介護老人保健施設）,岩手県花巻市湯口字志戸平１４番１号,,39.419244700000000,141.012232200000000,0198-38-5300,0198-38-5666,,医療法人　杏林会,370501009,,,,,,,,
35076,353180029,岩手県,洋野町,介護療養型老人保健施設たねいち,カイゴリョウヨウガタロウジンホケンシセツ　タネイチ,短期入所療養介護（介護老人保健施設）,九戸郡洋野町種市23-27-2,,40.409711700000000,141.719142200000000,0194-65-2127,0194-65-3909,,洋野町,353180029,,,,,,,,
33219,352280036,岩手県,紫波町,介護老人保健施設　白鷺,カイゴロウジンホケンシセツ　シラサギ,短期入所療養介護（介護老人保健施設）,紫波町犬渕字南谷地108番地3号,,39.510153900000000,141.158504100000000,019-672-1220,019-672-1221,,法友会,352280036,,,,,,,,
32018,350180089,岩手県,盛岡市,医療法人社団松誠会介護療養型老人保健施設圭友,イリョウホウジンシャダンショウセイカイカイゴリョウヨウガタロウジンホケンシセツケイユウ,短期入所療養介護（介護老人保健施設）,岩手県盛岡市津志田西２丁目１９番１号,,39.660238100000000,141.147944300000000,019-638-7775,019-638-7778,,医療法人社団松誠会,350180089,,,0,http://www.syoseikai.jp/,,,,
33014,352180087,岩手県,雫石町,介護老人保健施設　おうしゅく,カイゴロウジンホケンシセツ　オウシュク,短期入所療養介護（介護老人保健施設）,岩手県岩手郡雫石町南畑第32地割字南桝沢265番地,,39.648161600000000,140.950902000000000,019-695-2333,019-695-2324,,社団医療法人　康生会,352180087,,,,http://www.ohshuku.or.jp,,,,
32051,352380018,岩手県,花巻市,介護老人保健施設　はやちねの里,カイゴロウジンホケンシセツ　ハヤチネノサト,短期入所療養介護（介護老人保健施設）,岩手県花巻市大迫町大迫４－１９－１,,39.469286600000000,141.287047500000000,0198-36-1200,0198-36-1201,,医療法人　中庸会,352380018,,,0,,,,,
32069,370601007,岩手県,北上市,介護老人保健施設みさと,カイゴロウジンホケンシセツミサト,短期入所療養介護（介護老人保健施設）,岩手県北上市和賀町煤孫10-14-1,,39.289455400000000,141.000508300000000,0197-71-7231,0197-71-7232,8400005003462,医療法人社団敬和会,370601007,,,0,http://www.keiwakai.info/,,,,
32166,371600164,岩手県,滝沢市,医療法人社団松誠会　介護老人保健施設たきざわ,イリョウホウジンシャダンショウセイカイ　カイゴロウジンホケンシセツタキザワ,短期入所療養介護（介護老人保健施設）,岩手県滝沢市鵜飼笹森42番地2,,39.733376000000000,141.090974700000000,019-684-1154,019-613-3021,1400005000631,医療法人社団松誠会,371600164,,,,,,,,
32018,350180105,岩手県,盛岡市,介護老人保健施設ケアコートもりおか,カイゴロウジンホケンシセツケアコートモリオカ,短期入所療養介護（介護老人保健施設）,岩手県盛岡市青山1-25-25,,39.723960700000000,141.109995500000000,019-613-2303,019-613-2505,1400605000270,医療法人青樹会,350180105,,,,,,,,
32093,350910518,岩手県,一関市,介護老人保健施設さいき,カイゴロウジンホケンシセツサイキ,短期入所療養介護（介護老人保健施設）,岩手県一関市東山町松川字卯入道１２１,,38.961580600000000,141.249368400000000,0191-48-2300,0191-48-2301,7400505000101,社団医療法人西城病院,350910518,,,,,,,,
32018,352180012,岩手県,盛岡市,介護老人保健施設ケアホームやすみ,カイゴロウジンホケンシセツケアホームヤスミ,短期入所療養介護（介護老人保健施設）,岩手県盛岡市好摩字夏間木70－190,,39.875266900000000,141.166338700000000,019-682-2288,019-682-2277,8400005000682,医療法人日新堂,352180012,,,0,http://www.nisshindo-g.com/,,,,
32018,350180014,岩手県,盛岡市,介護老人保健施設　アルテンハイム青山,カイゴロウジンホケンシセツ　アルテンハイムアオヤマ,短期入所療養介護（介護老人保健施設）,岩手県盛岡市青山二丁目12-33,,39.726152300000000,141.113109000000000,019-647-2251,019-647-2257,5400005000677,医療法人遠山病院,350180014,,,0,http://www.altenheim.jp/,,,,
32018,350180048,岩手県,盛岡市,介護老人保健施設康楽苑,カイゴロウジンホケンシセツコウラクエン,短期入所療養介護（介護老人保健施設）,岩手県盛岡市手代森9地割64番地2,,39.658272100000000,141.184607700000000,019-696-5811,019-696-5521,1400005000672,社会医療法人智徳会,350180048,,,0,http://www.i-korakuen.com/,,,,
32018,350180071,岩手県,盛岡市,介護老人保健施設ハートフルもりおか短期入所療養介護施設,カイゴロウジンホケンシセツハートフルモリオカタンキニュウショリョウヨウカイゴシセツ,短期入所療養介護（介護老人保健施設）,岩手県盛岡市永井１４地割１５番地１,,39.659904600000000,141.138817300000000,019-632-3011,019-605-7078,9400005000054,岩手県厚生農業協同組合連合会,350180071,,,0,http://www.ja-iwatekouseiren.or.jp/,,,,
32018,350180022,岩手県,盛岡市,介護老人保健施設　イーハトーブ,カイゴロウジンホケンシセツイーハトーブ,短期入所療養介護（介護老人保健施設）,岩手県盛岡市本宮一丁目6番12号,,39.690456700000000,141.140838200000000,019-636-2626,019-635-3288,6400005000651,医療法人謙和会,350180022,,,0,http://www.oginohospital.jp,,,,
32051,352380000,岩手県,花巻市,介護老人保健施設ゆうゆうの里,カイゴロウジンホケンシセツユウユウノサト,短期入所療養介護（介護老人保健施設）,岩手県花巻市石鳥谷町松林寺第3地割82番地1,,39.474914400000000,141.095669800000000,0198-46-1000,0198-46-1007,1400005003147,医療法人中庸会,352380000,,,0,,,,,
32051,350580023,岩手県,花巻市,介護老人保健施設　サンシャイン,カイゴロウジンホケンシセツ　サンシャイン,短期入所療養介護（介護老人保健施設）,岩手県花巻市本館189,,39.410198100000000,141.120105000000000,0198-22-3412,0198-22-3414,8400005002976,医療法人ほがらか会,350580023,,,,http://hogaraka.gr.jp/sunshine/,,,,
32051,370501397,岩手県,花巻市,花巻市老人保健施設華の苑,ハナマキシロウジンホケンシセツハナヤギノエン,短期入所療養介護（介護老人保健施設）,岩手県花巻市東和町安俵6区75番地1,,39.384433800000000,141.224241800000000,0198-42-4822,0198-42-4888,8400005002976,医療法人ほがらか会,370501397,,,0,,,,,
32051,350580015,岩手県,花巻市,介護老人保健施設　サンホーム,カイゴロウジンホケンシセツ　サンホーム,短期入所療養介護（介護老人保健施設）,岩手県花巻市東宮野目１３－９５－１,,39.408217800000000,141.123035300000000,0198-22-5753,0198-23-7231,8400005002976,医療法人ほがらか会,350580015,,,0,http://www.hogaraka.gr.jp,,,,
32077,350780011,岩手県,久慈市,介護老人保健施設欅の里,カイゴロウジンホケンシセツケヤキノサト,短期入所療養介護（介護老人保健施設）,岩手県久慈市小久慈町１６－１２－１,,40.165666795773100,141.745252538623000,0194-59-3181,0194-59-3186,3400005004936,社団医療法人祐和会,350780011,,,0,,,,,
32026,370200560,岩手県,宮古市,介護老人保健施設ほほえみの里,カイゴロウジンホケンシセツホホエミノサト,短期入所療養介護（介護老人保健施設）,岩手県宮古市崎鍬ヶ崎第９地割３９番地２７,,39.668375200000000,141.957528300000000,0193-64-3311,0193-64-5077,5420005002721,医療法人仁泉会,370200560,,,0,http://www.hohoeminosato.jp/,,,,
32026,350280012,岩手県,宮古市,宮古介護老人保健施設桜ヶ丘,ミヤコカイゴロウジンホケンシセツサクラガオカ,短期入所療養介護（介護老人保健施設）,岩手県宮古市山口五丁目5番10号,,39.657620200000000,141.930778000000000,0193-62-3380,0193-64-1520,3400005004127,社団医療法人新和会,350280012,,,5,https://www.shinwa-kai.jp,,,,
32069,350690010,岩手県,北上市,介護老人保健施設たいわ,カイゴロウジンホケンシセツ　タイワ,短期入所療養介護（介護老人保健施設）,岩手県北上市北鬼柳20-20,,39.293448350629500,141.089288256592000,0197-77-3300,0197-77-3399,8400005003462,医療法人社団敬和会,350690010,,,80,http://www.keiwakai.info/,,,,
32069,350680039,岩手県,北上市,介護老人保健施設まつみ,カイゴロウジンホケンシセツマツミ,短期入所療養介護（介護老人保健施設）,岩手県北上市和賀町長沼5-350-1,,39.299589000000000,141.028227700000000,0197-73-8811,0197-73-8833,8400005003462,医療法人社団敬和会,350680039,,,0,http://www.keiwakai.info/,,,,
32085,352980015,岩手県,遠野市,介護老人保健施設　やまゆりの里,カイゴロウジンホケンシセツ　ヤマユリノサト,短期入所療養介護（介護老人保健施設）,岩手県遠野市宮守町達曽部27地割20番地11,,39.380500900000000,141.346711500000000,0198-69-5551,0198-69-5552,1400005003147,医療法人中庸会,352980015,,,0,,,,,
32093,372700658,岩手県,一関市,介護老人保健施設やまゆり,カイゴロウジンホケンシセツヤマユリ,短期入所療養介護（介護老人保健施設）,岩手県一関市千厩町千厩字宮敷４５番地１,,38.923073700000000,141.339411600000000,0191-51-3303,0191-51-3305,3400505000113,医療法人三秋会,372700658,,,0,http://i3syukai.com,,,,
32093,350980033,岩手県,一関市,老健ふじさわ,ロウケンフジサワ,短期入所療養介護（介護老人保健施設）,岩手県一関市藤沢町藤沢字町裏５２番地２,,38.858645500000000,141.349916900000000,0191-63-2010,0191-63-2094,,一関市,350980033,,,0,,,,,
32093,352680011,岩手県,一関市,介護老人保健施設華松苑,カイゴロウジンホケンシセツカショウエン,短期入所療養介護（介護老人保健施設）,岩手県一関市花泉町涌津字悪法師３８－３１,,38.800511000000000,141.190996800000000,0191-82-3311,0191-36-1060,5400505000103,医療法人磐清会,352680011,,,86,,,,,
32093,350980017,岩手県,一関市,介護老人保健施設一関ナーシングホーム,カイゴロウジンホケンシセツイチノセキナーシングホーム,短期入所療養介護（介護老人保健施設）,岩手県一関市真柴字吉ケ沢20番地52,,38.881219200000000,141.138317700000000,0191-26-3536,0191-26-2032,6400505000110,医療法人社団仁愛会,350980017,,,,http://jinaikai-nursing.sakura.ne.jp/,,,,
32093,350980025,岩手県,一関市,介護老人保健施設　シルバーヘルス一関,カイゴロウジンホケンシセツ　シルバーヘルスイチノセキ,短期入所療養介護（介護老人保健施設）,岩手県一関市字沢298-2,,38.902228200000000,141.151710300000000,0191-26-3387,0191-26-2587,2400505000106,医療法人白光,350980025,,,3,,,,,
32093,352780035,岩手県,一関市,介護老人保健施設ほうらい,カイゴロウジンホケンシセツホウライ,短期入所療養介護（介護老人保健施設）,岩手県一関市大東町渋民字大洞地５５－１,,39.020970800000000,141.338896400000000,0191-75-3766,0191-75-3767,5400505000425,医療法人むつみ,352780035,,,0,,,,,
32107,351080007,岩手県,陸前高田市,介護老人保健施設　松原苑,カイゴロウジンホケンシセツ　マツバラエン,短期入所療養介護（介護老人保健施設）,岩手県陸前高田市字中田69-2,,39.014721300000000,141.648759500000000,0192-53-1877,0192-53-1632,7402705000079,医療法人勝久会,351080007,,,0,http://www.shokyukai.or.jp/,,,,
32115,351180013,岩手県,釜石市,介護老人保健施設　はまゆりケアセンター,カイゴロウジンホケンシセツ　ハマユリケアセンター,短期入所療養介護（介護老人保健施設）,岩手県釜石市小佐野町4丁目3-7,,39.261733400000000,141.835843500000000,0193-23-2030,0193-25-0750,8400005004403,医療法人楽山会,351180013,,,0,http://www.rakuzankai.jp/,,,,
33014,352180046,岩手県,雫石町,介護老人保健施設はーとぽーと雫石,カイゴロウジンホケンシセツハートポートシズクイシ,短期入所療養介護（介護老人保健施設）,岩手県岩手郡雫石町板橋3-7,,39.701882300000000,141.019636700000000,019-692-3336,019-692-3371,3400005002337,社団医療法人三和会,352180046,,,0,,,,,
33014,372101907,岩手県,雫石町,介護老人保健施設はーとぽーと雫石２号館,カイゴロウジンホケンシセツハートポートシズクイシニゴウカン,短期入所療養介護（介護老人保健施設）,岩手県岩手郡雫石町板橋３－７,,39.701882300000000,141.019636700000000,019-692-3336,019-692-3371,3400005002337,社団医療法人三和会,372101907,,,0,,,,,
32140,352180079,岩手県,八幡平市,介護老人保健施設　岩鷲苑,カイゴロウジンホケンシセツ　ガンシュウエン,短期入所療養介護（介護老人保健施設）,岩手県八幡平市大更18地割88番地102,,39.898023500000000,141.092539200000000,0195-76-5611,0195-76-5621,1400005000631,医療法人社団松誠会,352180079,,,0,,,,,
32140,353280001,岩手県,八幡平市,介護老人保健施設　あしろ苑,カイゴロウジンホケンシセツアシロエン,短期入所療養介護（介護老人保健施設）,岩手県八幡平市川原１２９番,,40.113647100000000,141.058045000000000,0195-72-2600,0195-72-3477,1400005000631,医療法人社団松誠会,353280001,,,0,https://syouseikai.jp/,,,,
33812,352580013,岩手県,金ヶ崎町,介護老人保健施設　快老苑金ヶ崎,カイゴロウジンホケンシセツ　カイロウエンカネガサキ,短期入所療養介護（介護老人保健施設）,岩手県胆沢郡金ヶ崎町西根鑓水１０３－１,,39.194767100000000,141.111163700000000,0197-44-2475,0197-44-5215,9400605000379,医療法人若葉会,352580013,,,0,,,,,
33227,352280010,岩手県,矢巾町,介護老人保健施設敬愛荘,カイゴロウジンホケンシセツケイアイソウ,短期入所療養介護（介護老人保健施設）,岩手県紫波郡矢巾町大字広宮沢第1地割2番181,,39.622054500000000,141.086860400000000,019-697-3288,019-697-0641,9400005002406,医療法人社団帰厚堂,352280010,,,7,http://www.kikodo.or.jp,,,,
33227,372200816,岩手県,矢巾町,介護老人保健施設博愛荘,カイゴロウジンホケンシセツ　ハクアイソウ,短期入所療養介護（介護老人保健施設）,岩手県紫波郡矢巾町又兵エ新田第５地割３３５番医療福祉多機能ビル　　ケアセンター南昌,医療福祉多機能ビル　　ケアセンター南昌,39.613107600000000,141.148782400000000,019-698-2015,019-611-2071,9400005002406,医療法人社団帰厚堂,372200816,,,0,http://www.ccnansyou.com/,,,,
33227,372201004,岩手県,矢巾町,介護老人保健施設シェーンハイムやはば,カイゴロウジンホケンシセツシェーンハイムヤハバ,短期入所療養介護（介護老人保健施設）,岩手県紫波郡矢巾町土橋第11地割35-1,,39.583111900000000,141.172142300000000,019-697-0066,019-697-0122,1400005007635,社会福祉法人爽生会,372201004,,,,http://www.s-souseikai.jp,,,,
34827,373000934,岩手県,山田町,介護老人保健施設さくら山,カイゴロウジンホケンシセツサクラヤマ,短期入所療養介護（介護老人保健施設）,岩手県下閉伊郡山田町飯岡9-23-1,,39.466311730869100,141.946036504191000,0193-81-1721,0193-81-1722,7400005004164,医療法人晃生会,373000934,,,0,,,,,
34614,352980007,岩手県,大槌町,介護老人保健施設ケアプラザおおつち,カイゴロウジンホケンシセツケアプラザオオツチ,短期入所療養介護（介護老人保健施設）,岩手県上閉伊郡大槌町小鎚第14地割字蕨打直82番1,,39.379465620396200,141.845239225716000,0193-41-1200,0193-41-1202,7400005004404,医療法人あかね会,352980007,,,0,http://careplazaotsuchi.webnode.jp/,,,,
35017,353180011,岩手県,軽米町,介護老人保健施設　花の里かるまい,カイゴロウジンホケンシセツ　ハナノサトカルマイ,短期入所療養介護（介護老人保健施設）,岩手県九戸郡軽米町大字軽米第6地割89番地1,,40.315030200000000,141.458119400000000,0195-46-4646,0195-46-4651,9400005000450,社会福祉法人麗沢会,353180011,,,0,http://www.reitakukai.net/,,,,
32158,350480018,岩手県,奥州市,介護老人保健施設　清和苑,カイゴロウジンホケンシセツ　セイワエン,短期入所療養介護（介護老人保健施設）,岩手県奥州市水沢東大通り1丁目5番30号,,39.139832200000000,141.148079300000000,0197-47-5601,0197-25-3145,8400605000149,医療法人清和会,350480018,,,0,http://www.hopital-ohshu.or.jp/,,,,
32158,350410329,岩手県,奥州市,水沢老人保健施設興生園,ミズサワロウジンホケンシセツコウセイエン,短期入所療養介護（介護老人保健施設）,岩手県奥州市水沢佐倉河字慶徳27番地１,,39.143581543846700,141.148702666553000,0197-25-5450,0197-24-3341,6400605000150,医療法人社団創生会,350410329,,,0,,,,,
32158,352580005,岩手県,奥州市,老人保健施設　ハイム・アザレア,ロウジンホケンシセツ　ハイム・アザレア,短期入所療養介護（介護老人保健施設）,岩手県奥州市前沢古城字丑沢上野１００番地,,39.070716600000000,141.127205400000000,0197-56-3646,0197-56-2614,4400605000144,社団医療法人啓愛会,352580005,,,0,,,,,
32158,350480034,岩手県,奥州市,老人保健施設　ハイム・ベルク,ロウジンホケンシセツ　ハイム・ベルク,短期入所療養介護（介護老人保健施設）,岩手県奥州市水沢羽田町字水無沢４９６番地,,39.129137900000000,141.211265600000000,0197-51-2050,0197-51-2052,4400605000144,社団医療法人啓愛会,350480034,,,0,http://www.kihp.jp/,,,,
32166,352180038,岩手県,滝沢市,介護老人保健施設カルモナ,カイゴロウジンホケンシセツカルモナ,短期入所療養介護（介護老人保健施設）,岩手県滝沢市高屋敷平11-39,,39.748146500000000,141.091799200000000,019-684-2021,019-684-2024,7400005000634,社団医療法人池田記念会,352180038,,,0,,,,,
32166,352180020,岩手県,滝沢市,介護老人保健施設ホスピー滝沢,カイゴロウジンホケンシセツホスピータキザワ,短期入所療養介護（介護老人保健施設）,岩手県滝沢市鵜飼狐洞1番地139,,39.737050500000000,141.087891500000000,019-687-3735,019-687-3758,1400005000631,医療法人社団　松誠会,352180020,,,0,http://syouseikai.jp,,,,
32018,350180055,岩手県,盛岡市,老人保健施設　銀楊,ロウジンホケンシセツ　ギンヨウ,短期入所療養介護（介護老人保健施設）,岩手県盛岡市本宮２－２０－１０,,39.688484473842600,141.137568257672000,019-634-1800,019-634-1803,7400005000642,医療法人久遠会,350180055,,,0,http://www.kuonkai.com,,,,
32034,350380010,岩手県,大船渡市,介護老人保健施設　気仙苑,カイゴロウジンホケンシセツ　ケセンエン,短期入所療養介護（介護老人保健施設）,岩手県大船渡市大船渡町字山馬越188番地,,39.071021900000000,141.710066400000000,0192-27-8877,0192-27-8871,7402705000079,医療法人勝久会,350380010,,,0,http://www.shokyukai.or.jp,,,,
32077,350780003,岩手県,久慈市,介護老人保健施設リハビリタウンくじ,カイゴロウジンホケンシセツリハビリタウンクジ,短期入所療養介護（介護老人保健施設）,岩手県久慈市旭町8-100-2,,40.200328600000000,141.774629300000000,0194-53-0056,0194-52-8660,7400005004932,医療法人健生会,350780003,,,0,http://rehabilitown-kuji.jimdofree.com,,,,
32077,350780029,岩手県,久慈市,介護老人保健施設リハビリタウンくじユニット館,カイゴロウジンホケンシセツ　リハビリタウンクジユニットカン,短期入所療養介護（介護老人保健施設）,岩手県久慈市旭町第8地割100番地2,,40.200301311952700,141.774682890647000,0194-53-0056,0194-52-8660,7400005004932,医療法人健生会,350780029,,,0,http://rehabilitown-kuji.jimdo.com,,,,
33669,352410040,岩手県,西和賀町,介護老人保健施設　清水苑,カイゴロウジンホケンシセツ　セイスイエン,短期入所療養介護（介護老人保健施設）,岩手県和賀郡西和賀町清水ヶ野18地割167番地1,,39.359165700000000,140.762761100000000,0197-82-3301,0197-82-3303,6400005003381,医療法人尽心会,352410040,,,0,https://www.jinsinkai.jp/,,,,
32085,350880001,岩手県,遠野市,介護老人保健施設とおの,カイゴロウジンホケンシセツトオノ,短期入所療養介護（介護老人保健施設）,岩手県遠野市松崎町白岩１３－３０－２,,39.342269500000000,141.537371500000000,0198-60-1121,0198-60-1131,8400005003462,医療法人社団敬和会,350880001,,,0,,,,,
32115,351180021,岩手県,釜石市,介護老人保健施設フレールはまゆり,カイゴロウジンホケンシセツフレールハマユリ,短期入所療養介護（介護老人保健施設）,岩手県釜石市小佐野町３丁目９番１号,,39.262133400000000,141.837871100000000,0193-23-2030,0193-23-2460,8400005004403,医療法人楽山会,351180021,,,0,http://www.rakuzankai.jp/,,,,
35076,353180003,岩手県,洋野町,介護老人保健施設ユートピア白滝,カイゴロウジンホケンシセツユートピアシラタキ,短期入所療養介護（介護老人保健施設）,岩手県九戸郡洋野町中野第３地割３８－１８２,,40.306506600000000,141.781826400000000,0194-67-5161,0194-67-5164,8400005004865,社会福祉法人慈恵会,353180003,,,0,,,,,
32131,351380019,岩手県,二戸市,湯の里にのへ,ユノサトニノヘ,短期入所療養介護（介護老人保健施設）,岩手県二戸市金田一字湯田24番地,,40.320554100000000,141.320321000000000,0195-27-3311,0195-27-3315,9400005000450,社会福祉法人麗沢会,351380019,,,0,http://www.reitakukai.net/,,,,
33031,352180061,岩手県,岩手町,介護老人保健施設ケアホーム川口,カイゴロウジンホケンシセツケアホームカワグチ,短期入所療養介護（介護老人保健施設）,岩手県岩手郡岩手町大字川口第13地割26番地6,,39.913577300000000,141.203503100000000,0195-65-3151,0195-65-3152,8400005000682,医療法人日新堂,352180061,,,2,http://www.nisshindo-g.com,,,,
33022,352180004,岩手県,葛巻町,介護老人保健施設アットホームくずまき,カイゴロウジンホケンシセツアットホームクズマキ,短期入所療養介護（介護老人保健施設）,岩手県岩手郡葛巻町江刈5-155-7,,40.033644600000000,141.461494500000000,0195-67-1117,0195-67-1118,2400005002759,医療法人敬仁会,352180004,,,,http://www.athome-kuzumaki.or.jp,,,,
32140,352180053,岩手県,八幡平市,短期入所療養介護　希望（のぞみ）,タンキニュウショリョウヨウカイゴ　ノゾミ,短期入所療養介護（介護老人保健施設）,岩手県八幡平市柏台二丁目８番３号,,39.915559700000000,140.981691400000000,0195-71-1010,0195-71-1011,2400005005282,一般財団法人みちのく愛隣協会,352180053,,,,http://www.mairin.jp,,,,
34029,352680003,岩手県,平泉町,介護老人保健施設さわなり苑,カイゴロウジンホケンシセツサワナリエン,短期入所療養介護（介護老人保健施設）,岩手県西磐井郡平泉町長島字砂子沢６番１,,38.996084400000000,141.145296700000000,0191-46-3010,0191-46-5003,3400505000113,医療法人三秋会,352680003,,,0,https://i3syukai.com,,,,
34835,353080026,岩手県,岩泉町,介護老人保健施設ふれんどりー岩泉,カイゴロウジンホケンシセツフレンドリーイワイズミ,短期入所療養介護（介護老人保健施設）,岩手県下閉伊郡岩泉町乙茂字上９番地１２,,39.840044400000000,141.858892400000000,0194-22-5100,0194-22-5150,5400005004257,社団医療法人緑川会,353080026,,,,https://f-iwaizumi.jimdo.com/,,,,
35246,353280019,岩手県,一戸町,介護老人保健施設　こずやサンブルク,カイゴロウジンホケンシセツ　コズヤサンブルク,短期入所療養介護（介護老人保健施設）,岩手県二戸郡一戸町小鳥谷字野中２１,,40.181389800000000,141.305057300000000,0195-34-2006,0195-34-2007,4400005004786,社団医療法人藤悠会,353280019,,,0,,,,,
32158,351280003,岩手県,奥州市,介護老人保健施設サンライフえさし,カイゴロウジンホケンシセツサンライフエサシ,短期入所療養介護（介護老人保健施設）,岩手県奥州市江刺岩谷堂字下惣田２９０番地の３,,39.179784000000000,141.182319100000000,0197-35-8480,0197-35-8482,1400605000270,医療法人青樹会,351280003,,,0,,,,,
41033,455380022,宮城県,仙台市若林区,介護老人保健施設　リハビリパーク仙台東,カイゴロウジンホケンシセツ　リハビリパークセンダイヒガシ,短期入所療養介護（介護老人保健施設）,仙台市若林区長喜城字宮浦26番地,,38.239139600000000,140.935970500000000,022-287-5500,022-288-6300,,医療法人杏林会,455380022,,,0,http://rehabili-park.com,,,,
41025,455280032,宮城県,仙台市宮城野区,介護老人保健施設リハビリパーク高砂,カイゴロウジンホケンシセツリハビリパークタカサゴ,短期入所療養介護（介護老人保健施設）,仙台市宮城野区福室3丁目14番,,38.273992700000000,140.967773500000000,022-258-6001,022-254-4005,,医療法人杏林会,455280032,,,0,http://www.rehabili-park.com,,,,
42021,450280078,宮城県,石巻市,医療機関併設型小規模介護老人保健施設　網小,イリョウキカンヘイセツガタショウキボカイゴロウジンホケンシセツ　アミショウ,短期入所療養介護（介護老人保健施設）,宮城県石巻市長渡浜杉13-3,,38.266378800000000,141.478165400000000,0225-49-2033,0225-49-2585,,陽気会,450280078,,,,amishou@office.email.ne.jp,,,,
42021,450280037,宮城県,石巻市,介護老人保健施設第二恵仁ホーム,カイゴロウジンホケンシセツダイニケイジンホーム,短期入所療養介護（介護老人保健施設）,宮城県石巻市門脇字一番谷地５７番地の１８,,38.433615200000000,141.263241800000000,0225-23-5861,0225-23-5871,,医療法人社団仁明会,450280037,,,,http://www.jinmei.or.jp/2nd_keijin/index.html,,,,
41041,455480046,宮城県,仙台市太白区,老人保健施設　杜の倶楽部,ロウジンホケンシセツ　モリノクラブ,短期入所療養介護（介護老人保健施設）,仙台市太白区茂庭字人来田東１９－１３,,38.214555700000000,140.807524400000000,022-307-3300,022-307-3301,,翠十字,455480046,,,,http://www.midorijuji.or.jp,,,,
42030,450380027,宮城県,塩竈市,介護老人保健施設やまと塩竈,カイゴロウジンホケンシセツモモセシオガマ,短期入所療養介護（介護老人保健施設）,宮城県塩竈市字伊保石20番地1,,38.334884700000000,141.017773600000000,022-363-3211,022-361-8408,,社会福祉法人　大和福壽会,450380027,,,0,http://www.yamato.or.jp,,,,
42153,451580054,宮城県,大崎市,介護老人保健施設　リハビリパーク　あやめ,カイゴロウジンホケンシセツ　リハビリパーク　アヤメ,短期入所療養介護（介護老人保健施設）,宮城県大崎市古川旭3丁目６－１,,38.568570300000000,140.974861900000000,0229-22-7600,0229-20-1030,,医療法人　杏林会,451580054,,,0,http://www.rehabili-park.com,,,,
42153,451580039,宮城県,大崎市,介護老人保健施設　ヒューマンシティ松山,カイゴロウジンホケンシセツ　ヒューマンシティマツヤマ,短期入所療養介護（介護老人保健施設）,宮城県大崎市松山千石字広田３５,,38.514660900000000,141.061228700000000,0229-55-2603,0229-55-4665,,医療法人　而成会,451580039,,,0,,,,,
41033,455380048,宮城県,仙台市若林区,介護老人保健施設リハビリパーク仙台東,カイゴロウジンホケンシセツリハビリパークセンダイヒガシ,短期入所療養介護（介護老人保健施設）,宮城県仙台市若林区長喜城字宮浦26,,38.239139600000000,140.935970500000000,022-287-5500,022-288-6300,,医療法人杏林会,455380048,,,,http://rehabili-park.com,,,,
42153,451580062,宮城県,大崎市,介護老人保健施設　ジュイールクラブ,カイゴロウジンホケンシセツ　ジュイールクラブ,短期入所療養介護（介護老人保健施設）,宮城県大崎市古川北町2丁目5番15号,,38.579593700000000,140.965620600000000,0229-22-1001,0229-22-5151,,医療法人　社団　仁徳会,451580062,,,0,http://www.nintokukai.or.jp/,,,,
42021,450280029,宮城県,石巻市,介護老人保健施設リハビリパーク花もよう,カイゴロウジンホケンシセツリハビリパークハナモヨウ,短期入所療養介護（介護老人保健施設）,宮城県石巻市大橋３丁目９番１号,,38.442812900000000,141.311790900000000,0225-95-3300,0225-94-5900,,医療法人杏林会,450280029,,,0,http://www.rehabili-park.com,,,,
42056,450580030,宮城県,気仙沼市,医療機関併設型小規模介護老人保健施設　リンデンヴィラ,イリョウキカンヘイセツガタショウキボカイゴロウジンホケンシセツリンデンビラ,短期入所療養介護（介護老人保健施設）,宮城県気仙沼市東新城2-9-1,,38.905756400000000,141.549055000000000,0226-21-1160,0226-21-1161,,医療法人　社団晃和会,450580030,,,0,http://www.kouwakai.biz/,,,,
43231,452280027,宮城県,柴田町,介護老人保健施設　リハビリパークさくら,カイゴロウジンホケンシセツ　リハビリパークサクラ,短期入所療養介護（介護老人保健施設）,宮城県柴田郡柴田町船岡新栄6丁目6番地５,,38.048120100000000,140.781464000000000,0224-58-3300,0224-58-1700,,医療法人　杏林会,452280027,,,0,http://www.rehabili-park.com,,,,
42099,450980016,宮城県,多賀城市,介護老人保健施設　リハビリパークみやび,カイゴロウジンホケンシセツ　リハビリパークミヤビ,短期入所療養介護（介護老人保健施設）,宮城県多賀城市高橋4丁目17-16,,38.288150100000000,140.981391300000000,022-309-2333,022-309-8333,,医療法人　杏林会,450980016,,,0,http://www.rehabili-park.com/sisetu/miyabi/index.html,,,,
43613,452480023,宮城県,亘理町,老人保健施設　和多里ホーム,ロウジンホケンシセツ　ワタリホーム,短期入所療養介護（介護老人保健施設）,宮城県亘理郡亘理町字裏城戸155,,38.030077200000000,140.859900500000000,0223-34-0311,0223-34-0312,,医療法人社団　三上医院,452480023,,,0,http://www.watarihome.jp,,,,
42021,450280052,宮城県,石巻市,介護老人保健施設　ガーデンハウスこだま,カイゴロウジンホケンシセツ　ガーデンハウスコダマ,短期入所療養介護（介護老人保健施設）,宮城県石巻市泉町４丁目１１番４７号,,38.427963700000000,141.293551100000000,0225-92-5307,0225-22-2110,,医療法人　有恒会,450280052,,,,https://www.kodama-hp.com,,,,
42056,450580014,宮城県,気仙沼市,老人保健施設リバーサイド春圃,ロウジンホケンシセツリバーサイドシュンポ,短期入所療養介護（介護老人保健施設）,宮城県気仙沼市舘山一丁目1番43号,,38.902980845744100,141.560487739287000,0226-24-1732,0226-24-3510,,医療法人くさの実会,450580014,,,3,http://riverside.kusanomikai.or.jp/,,,,
42064,450680020,宮城県,白石市,介護老人保健施設　清風,カイゴロウジンホケンシセツ　セイフウ,短期入所療養介護（介護老人保健施設）,宮城県白石市大手町2‐1,,38.003133300000000,140.618963300000000,0224-22-2110,0224-22-2117,,医療法人社団　清風会,450680020,,,0,http://www.sei-fu.com/,,,,
42072,450780028,宮城県,名取市,老人保健施設　ライフケアセンター名取,ロウジンホケンシセツ　ライフケアセンターナトリ,短期入所療養介護（介護老人保健施設）,宮城県名取市増田字柳田８,,38.172133900000000,140.893585200000000,022-383-1020,022-383-1023,2370805000065,医療法人社団洞口会,450780028,,,,http://www.natorichuo-clinic.jp/original7.html,,,,
42072,450780036,宮城県,名取市,介護老人保健施設なとり,カイゴロウジンホケンシセツナトリ,短期入所療養介護（介護老人保健施設）,宮城県名取市高舘熊野堂字岩口下１－２,,38.197502500000000,140.846060200000000,022-386-3770,022-386-3788,5420005002721,医療法人仁泉会,450780036,,,0,,,,,
42081,450880018,宮城県,角田市,介護老人保健施設ゆうゆうホーム,カイゴロウジンホケンシセツユウユウホーム,短期入所療養介護（介護老人保健施設）,角田市角田字田町114-9,,37.973729800000000,140.786353800000000,0224-62-4866,0224-62-4868,7370105001107,医療法人金上仁友会,450880018,,,,http://www.kanagami.or.jp,,,,
42081,450880026,宮城県,角田市,介護老人保健施設　はくあいホーム,カイゴロウジンホケンシセツハクアイホーム,短期入所療養介護（介護老人保健施設）,宮城県角田市角田字牛舘16番地,,37.971632900000000,140.783132000000000,0224-63-5111,0224-63-2802,6370105001108,本多友愛会,450880026,,,0,,,,,
42111,451180012,宮城県,岩沼市,サニーホーム,サニーホーム,短期入所療養介護（介護老人保健施設）,宮城県岩沼市里の杜１丁目2-6,,38.108114100000000,140.876876400000000,0223-29-3275,0223-29-3275,,社会医療法人　将道会,451180012,,,0,http;//www.minamitohoku.jp,,,,
42129,451280028,宮城県,登米市,登米市立豊里老人保健施設,トメシリツトヨサトロウジンホケンシセツ,短期入所療養介護（介護老人保健施設）,宮城県登米市豊里町土手下104番地1,,38.587167100000000,141.253272900000000,0225-76-5635,0225-76-5730,,登米市,451280028,,,75,http://www.city.tome.miyagi.jp/iryou/toyosatohl/,,,,
42129,451280036,宮城県,登米市,南方ナーシングホーム翔裕園,ミナミカタナーシングホームショウユウエン,短期入所療養介護（介護老人保健施設）,宮城県登米市南方町山成前791-1,,38.657366300000000,141.150214600000000,0220-58-5455,0220-58-5456,2030005009734,社会福祉法人元気村,451280036,,,0,http://www.genkimuragroup.jp/genkimura/minamikata-nh/,,,,
42137,451380018,宮城県,栗原市,介護老人保健施設　高森ロマンホーム,カイゴロウジンホケンシセツ　タカモリロマンホーム,短期入所療養介護（介護老人保健施設）,宮城県栗原市築館字下高森124-1,,38.715981700000000,140.984322300000000,0228-22-3922,0228-22-3988,5370205001512,医療法人社団　畑山医院,451380018,,,100,http://www.hatayamaclinic.com,,,,
42137,451380026,宮城県,栗原市,介護老人保健施設　グレイスガーデン,カイゴロウジンホケンシセツ　グレイスガーデン,短期入所療養介護（介護老人保健施設）,宮城県栗原市若柳字福岡谷地畑浦35,,38.783654700000000,141.117026400000000,0228-32-7730,0228-32-7737,,医療法人財団　弘慈会,451380026,,,0,http://www.kojikai.jp,,,,
42137,451380034,宮城県,栗原市,介護老人保健施設　シエスタ,カイゴロウジンホケンシセツ　シエスタ,短期入所療養介護（介護老人保健施設）,宮城県栗原市金成末野台下31番地１,,38.847505400000000,141.100017500000000,０２２８－４３－１２２２,０２２８－４３－１２３３,,介護老人保健施設　シエスタ,451380034,,,,http://www.siesta.or.jp,,,,
42137,451380042,宮城県,栗原市,短期入所療養介護　藤の里,タンキニュウショリョウヨウカイゴ　フジノサト,短期入所療養介護（介護老人保健施設）,宮城県栗原市瀬峰新田沢１２－１,,38.666749300000000,141.072706200000000,0228-38-3233,0228-38-3271,,医療法人社団　泉翔会,451380042,,,0,http://www.sensho-kai.or.jp/,,,,
42145,451480016,宮城県,東松島市,介護老人保健施設さつき苑,カイゴロウジンホケンシセツサツキエン,短期入所療養介護（介護老人保健施設）,宮城県東松島市大塩字山崎42番地1,,38.436676300000000,141.178308400000000,0225-83-7760,0225-83-5411,1370305000426,医療法人　医徳会,451480016,,,0,http://www.itokukai.or.jp/satsuki/,,,,
43010,452180011,宮城県,蔵王町,介護老人保健施設　リラの郷,カイゴロウジンホケンシセツ　リラノサト,短期入所療養介護（介護老人保健施設）,宮城県刈田郡蔵王町遠刈田温泉字八山4番１８,,38.108666800000000,140.602266900000000,0224-34-4377,0224-34-4379,,医療法人社団　リラの会,452180011,,,100,http://www.riranosato.com,,,,
43214,452280043,宮城県,大河原町,介護老人保健施設さくらの杜,カイゴロウジンホケシセツサクラノモリ,短期入所療養介護（介護老人保健施設）,宮城県柴田郡大河原字広表３３番地１,,38.048481200000000,140.716752800000000,0224-51-4655,0224-51-4656,,医療法人社団清山会,452280043,,,0,http://www.izuminomori.jp,,,,
43222,452280035,宮城県,村田町,介護老人保健施設あいやま,カイゴロウジンホケンシセツ　アイヤマ,短期入所療養介護（介護老人保健施設）,宮城県柴田郡村田町大字村田字相山100番地5,,38.128861100000000,140.723141900000000,0224-82-2181,0224-82-2183,1370805000058,社会福祉法人　宮城福祉会,452280035,,,1,http://www.miyagifukushikai.or.jp/murata/,,,,
43249,452280019,宮城県,川崎町,アルパイン川崎,アルパインカワサキ,短期入所療養介護（介護老人保健施設）,宮城県柴田郡川崎町大字前川字北原59番地の6,,38.182588400000000,140.629458700000000,0224-84-6121,0224-84-6868,9370005001221,社団　光友会,452280019,,,0,http://matsuda-hp.com/matsuda/alpine/,,,,
43621,452480015,宮城県,山元町,医療法人育志会　介護老人保健施設アルカディアウエル,イリョウホウジンイクシカイカイゴロウジンホケンシセツアルカディアウエル,短期入所療養介護（介護老人保健施設）,宮城県亘理郡山元町山寺字堤山8番地5,,37.963417800000000,140.871216100000000,0223-37-5885,0223-37-5775,2370805000255,医療法人育志会,452480015,,,0,http://ikusikai.jp,,,,
42161,451680011,宮城県,富谷市,介護老人保健施設　富谷の郷,カイゴロウジンホケンシセツ　トミヤノサト,短期入所療養介護（介護老人保健施設）,宮城県富谷市三ノ関坂ノ下116番3,,38.406858342942700,140.892164279762000,022-745-5333,022-341-6541,2010005014562,公益社団法人地域医療振興協会,451680011,,,,https://tmst.jp/,,,,
42161,452780034,宮城県,富谷市,介護老人保健施設　リーブズ,カイゴロウジンホケンシセツ　リーブズ,短期入所療養介護（介護老人保健施設）,宮城県富谷市成田二丁目1番地の3,,38.364004100000000,140.886884700000000,022-351-9939,022-351-8021,,医療法人社団　中谷クリニック,452780034,,,1,http://www.nakaya.or.jp,,,,
44440,452880016,宮城県,色麻町,加美老人保健施設,カミロウジンホケンシセツ,短期入所療養介護（介護老人保健施設）,宮城県加美郡色麻町四竃字杉成９番地,,38.551456087756800,140.848472434255000,0229-66-2780,0229-66-2781,,加美郡保健医療福祉行政事務組合,452880016,,,0,http://www.kamihp.jp/,,,,
46060,453680027,宮城県,南三陸町,介護老人保健施設　ハイム・メアーズ,カイゴロウジンホケンシセツ　ハイム・メアーズ,短期入所療養介護（介護老人保健施設）,宮城県本吉郡南三陸町志津川字袖浜２５５番地,,38.678752100000000,141.471247000000000,0226-46-2772,0226-46-2773,,社団医療法人　啓愛会,453680027,,,0,http://www.kihp.jp,,,,
46060,453680019,宮城県,南三陸町,医療法人　医徳会　介護老人保健施設　歌津つつじ苑,イリョウホウジン　イトクカイ　カイゴロウジンホケンシセツ　ウタツツツジエン,短期入所療養介護（介護老人保健施設）,宮城県本吉郡南三陸町歌津字砂浜２３－５９,,38.703320200000000,141.510098100000000,0226-36-9233,0226-36-9231,1370305000426,医療法人　医徳会,453680019,,,0,http://www.itokukai.or.jp,,,,
45012,453180010,宮城県,涌谷町,涌谷町老人保健施設,ワクヤチョウロウジンホケンシセツ,短期入所療養介護（介護老人保健施設）,宮城県遠田郡涌谷町涌谷字中江南278,,38.540312656183900,141.147661727509000,0229-43-5111,0229-43-5500,,涌谷町,453180010,,,0,http://www.town.wakuya.miyagi.jp/kenko/kenko/hospital/index.html,,,,
42153,451580021,宮城県,大崎市,介護老人保健施設　さくら,カイゴロウジンホケンシセツ　サクラ,短期入所療養介護（介護老人保健施設）,宮城県大崎市古川小稲葉町5番25号,,38.568747300000000,140.951925100000000,0229-23-8183,0229-23-1709,,医療法人　華桜会,451580021,,,0,,,,,
42153,451580013,宮城県,大崎市,介護老人保健施設アミスタ,カイゴロウジンホケンシセツアミスタ,短期入所療養介護（介護老人保健施設）,宮城県大崎市古川浦町1-37,,38.577913100000000,140.957457600000000,0229-22-0015,0229-24-1262,,一般財団法人　片倉病院,451580013,,,82,http://katakura-hospital.com,,,,
42153,451580047,宮城県,大崎市,介護老人保健施設　庭の里,カイゴロウジンホケンシセツ　ニワノサト,短期入所療養介護（介護老人保健施設）,宮城県大崎市古川江合本町２丁目２－５,,38.588953800000000,140.971652900000000,0229-21-8460,0229-21-8371,5390005005587,社会福祉法人千宏会,451580047,,,,http://www.tihiro.jp,,,,
42021,450280011,宮城県,石巻市,介護老人保健施設　恵仁ホーム,カイゴロウジンホケンシセツ　ケイジンホーム,短期入所療養介護（介護老人保健施設）,宮城県石巻市山下町二丁目１番５号,,38.432002300000000,141.292645500000000,0225-96-0525,0225-96-1120,1370305000442,医療法人　社団　仁明会,450280011,,,10,http://www.jinmei.or.jp/keijin/,,,,
42021,450280086,宮城県,石巻市,介護老人保健施設　しおん,カイゴロウジンホケンシセツシオン,短期入所療養介護（介護老人保健施設）,宮城県石巻市吉野町1-7-1,,38.426120300000000,141.318135000000000,0225-21-5155,0225-21-5156,6011405000058,医療法人社団健育会,450280086,,,0,http://shion.or.jp/,,,,
42021,450280060,宮城県,石巻市,医療法人海邦会介護老人保健施設長山,イリョウホウジンカイホウカイカイゴロウジンホケンシセツナガヤマ,短期入所療養介護（介護老人保健施設）,宮城県石巻市広渕字長山200番地,,38.474014100000000,141.197726700000000,0225-73-4474,0225-73-4476,1360005003671,医療法人海邦会,450280060,,,0,http://www.kaihokai.or.jp/,,,,
42030,450380019,宮城県,塩竈市,介護老人保健施設グリーンヒルズ,カイゴロウジンホケンシセツグリーンヒルズ,短期入所療養介護（介護老人保健施設）,宮城県塩竈市西玉川町１番２８号,,38.310320500000000,141.001715900000000,022-362-5050,022-362-5454,8370605000061,医療法人菅野愛生会,450380019,,,0,www.midorigaoka-shiogama.com,,,,
42056,450580022,宮城県,気仙沼市,医療法人　社団　晃和会　　介護老人保健施設　リンデンバウムの杜,イリョウホウジン　シャダン　コウワカイ　　カイゴロウジンホケンシセツ　リンデンバウムノモリ,短期入所療養介護（介護老人保健施設）,宮城県気仙沼市東新城2-9-1,,38.905756400000000,141.549055000000000,0226-21-1162,0226-21-1164,,医療法人　社団　晃和会,450580022,,,0,http//kouwakai.biz/,,,,
42056,453680035,宮城県,気仙沼市,介護老人保健施設　はまなすの丘,カイゴロウジンホケンシセツ　ハマナスノオカ,短期入所療養介護（介護老人保健施設）,宮城県気仙沼市本吉町外尾25番地,,38.764327700000000,141.499599000000000,0226-42-2915,0226-42-2916,1370505000300,医療法人社団　湖聖会,453680035,,,100,http://m-koseikai.com/,,,,
42099,450980024,宮城県,多賀城市,介護老人保健施設　恵愛ホーム,カイゴロウジンホケンシセツ　ケイアイホーム,短期入所療養介護（介護老人保健施設）,宮城県多賀城市大代5-16-46,,38.293857300000000,141.039140800000000,022-366-7117,022-364-5908,,医療法人社団　幸和会,450980024,,,0,http://www.keiaihome.com/,,,,
42129,451280044,宮城県,登米市,介護老人保健施設なかだ,カイゴロウジンホケンシセツナカダ,短期入所療養介護（介護老人保健施設）,宮城県登米市中田町浅水字上川面65－1,,38.715572700000000,141.261993900000000,0220-35-2655,0220-35-1062,,医療法人　仁泉会,451280044,,,150,http://www.sg-nakada.jp/,,,,
43419,452380017,宮城県,丸森町,介護老人保健施設　丸森ロイヤルケアセンター,カイゴロウジンホケンシセツ　マルモリロイヤルケアセンター,短期入所療養介護（介護老人保健施設）,宮城県伊具郡丸森町字鳥屋9番2号丸森ロイヤルケアセンター,丸森ロイヤルケアセンター,37.913273500000000,140.766114100000000,0224-73-1101,0224-73-1155,4011405000068,医療法人　財団明理会　丸森ロイヤルケアセンタ－,452380017,,,100,http://www.ims.gr.jp/marumori-royal/,,,,
44016,452680010,宮城県,松島町,老人保健施設　松島みどりの家,ロウジンホケンシセツ　マツシマミドリノイエ,短期入所療養介護（介護老人保健施設）,宮城県宮城郡松島町高城字浜１番地２６,,38.378072800000000,141.070518600000000,022-354-2126,022-354-2127,,医療法人　友仁会,452680010,,,0,http://www.matushimahospital.com/midori/,,,,
44067,452680028,宮城県,利府町,利府仙台ロイヤルケアセンター,リフセンダイロイヤルケアセンター,短期入所療養介護（介護老人保健施設）,宮城県宮城郡利府町新中道二丁目1番地1,,38.325412200000000,140.975114300000000,022-356-0355,022-356-0533,4011405000068,財団　明理会,452680028,,,2,http://www.ims.gr.jp/rifuroyalcare/,,,,
44067,452680036,宮城県,利府町,介護老人保健施設　加瀬ウェルネスタウン,カイゴロウジンホケンシセツ　カセウェルネスタウン,短期入所療養介護（介護老人保健施設）,宮城県宮城郡利府町加瀬字北窪１６番１,,38.320357500000000,140.981342000000000,022-349-1717,022-349-1716,7370605000335,医療法人社団　喜英会,452680036,,,5,http://kase-wellnesstown.com/,,,,
44211,452780018,宮城県,大和町,介護老人保健施設希望の杜,カイゴロウジンホケンシセツキボウノモリ,短期入所療養介護（介護老人保健施設）,宮城県黒川郡大和町吉田字新要害10番地,,38.433998500000000,140.880479500000000,022-344-3232,022-344-3231,,医療法人社団眞友会,452780018,,,0,http://www.izuminomori.jp,,,,
44229,452780042,宮城県,大郷町,羽生の丘・オーベルジュ　短期入所療養介護,ハニュウノオカ・オーベルジュ　タンキニュウショリョウヨウカイゴ,短期入所療養介護（介護老人保健施設）,宮城県黒川郡大郷町羽生字蒲ヶ沢50番地の1,,38.424535000000000,141.015302200000000,022-359-5582,022-359-5584,,医療法人社団　俊香会,452780042,,,0,http://syunkoukai.jp/auberge.goodleaf.jp/index.html,,,,
45811,473500171,宮城県,女川町,女川町地域医療センター,オナガワチョウチイキイリョウセンター,短期入所療養介護（介護老人保健施設）,宮城県牡鹿郡女川町鷲神浜字堀切山107番地1,,38.443414200000000,141.445232500000000,0225-53-5511,0225-53-5521,2010005014562,公益社団法人地域医療振興協会,473500171,,,,http://onagawahp.jadecom.or.jp,,,,
41017,455180018,宮城県,仙台市青葉区,仙台ロイヤルケアセンター,センダイロイヤルケアセンター,短期入所療養介護（介護老人保健施設）,宮城県仙台市青葉区みやぎ台一丁目31-1,,38.307349400000000,140.777284400000000,022-394-7651,022-394-6773,4011405000068,医療法人財団　明理会,455180018,,,0,http://www.ims.gr.jp/sendai-rcc/,,,,
41041,455480020,宮城県,仙台市太白区,介護老人保健施設ソアーズ,カイゴロウジンホケンシセツソアーズ,短期入所療養介護（介護老人保健施設）,宮城県仙台市太白区西中田2丁目11-17,,38.202858300000000,140.879087500000000,022-242-1171,022-242-3003,,医療法人社団　誠英会,455480020,,,0,,,,,
41050,455580035,宮城県,仙台市泉区,介護老人保健施設　　　コスモス,カイゴロウジンホケンシセツ　　コスモス,短期入所療養介護（介護老人保健施設）,仙台市泉区上谷刈字長命８番地,,38.318833600000000,140.856379000000000,022-777-3666,022-777-3670,7370005001149,医療法人　泉整形外科病院,455580035,,,0,http://www.izumiseikei.com/?page_id=42#cos,,,,
41033,455380055,宮城県,仙台市若林区,介護老人保健施設葵の園・仙台東,カイゴロウジンホケンシセツ　アオイノソノセンダイヒガシ,短期入所療養介護（介護老人保健施設）,宮城県仙台市若林区荒井字矢取東62（12Ｂ-7Ｌ）,,38.240428400000000,140.949433400000000,022-288-6366,022-288-3933,1010005004837,医療法人社団葵会,455380055,,,0,http://www.aoikai.jp/,,,,
41033,455380030,宮城県,仙台市若林区,介護老人保健施設　春風のころ,カイゴロウジンホケンシセツ　ハルカゼノコロ,短期入所療養介護（介護老人保健施設）,宮城県仙台市若林区日辺字沖田１５番,,38.216433000000000,140.914256600000000,022-781-3830,022-781-3880,,医療法人　福祉の森,455380030,,,100,,,,,
41033,455380014,宮城県,仙台市若林区,老人保健施設はくれい,ロウジンホケンシセツ　ハクレイ,短期入所療養介護（介護老人保健施設）,宮城県仙台市若林区今泉字鹿子穴６２番地,,38.206306900000000,140.928694900000000,022-289-6363,022-289-6288,6370005001232,特定医療法人　白嶺会,455380014,,,0,http://rk-hakurei.jp/,,,,
41017,455180117,宮城県,仙台市青葉区,Challengeすこやか,チャレンジ　スコヤカ,短期入所療養介護（介護老人保健施設）,宮城県仙台市青葉区郷六字久保38番地42,,38.261739200000000,140.815538600000000,022-724-7430,022-724-7431,,医療法人　星陵会,455180117,,,0,http://challenge-seiryo.com/,,,,
41017,455180075,宮城県,仙台市青葉区,介護老人保健施設　泉翔の里,カイゴロウジンホケンシセツ　　センショウノサト,短期入所療養介護（介護老人保健施設）,宮城県仙台市青葉区折立4丁目1-15,,38.261500200000000,140.809283700000000,022-226-4633,022-226-3376,,医療法人社団　　泉翔会,455180075,,,0,http://www.sensho-kai.or.jp/,,,,
41017,455180042,宮城県,仙台市青葉区,せんだんの丘　短期入所療養介護,センダンノオカ　タンキニュウショリョウヨウカイゴ,短期入所療養介護（介護老人保健施設）,仙台市青葉区国見ヶ丘6-126-51,,38.284081500000000,140.834444200000000,022-727-7722,022-727-7727,4370005001300,医療法人社団東北福祉会,455180042,,,0,http://www.bone-info.org/sendannooka/index.html,,,,
41017,455180034,宮城県,仙台市青葉区,一般財団法人周行会介護老人保健施設トラスト,イッパンザイダンホウジンシュウコウカイカイゴロウジンホケンシセツトラスト,短期入所療養介護（介護老人保健施設）,宮城県仙台市青葉区上杉２－３－１７,,38.272706200000000,140.869194500000000,022-221-5567,022-715-9255,8370005000199,一般財団法人周行会,455180034,,,0,http://www.shukokai.or.jp,,,,
41017,455180067,宮城県,仙台市青葉区,介護老人保健施設　仙台青葉ロイヤルケアセンター,カイゴロウジンホケンシセツ　センダイアオバ,短期入所療養介護（介護老人保健施設）,宮城県仙台市青葉区吉成台二丁目3番20号,,38.296399300000000,140.826741300000000,022-303-3911,022-303-3912,4011405000068,医療法人財団明理会,455180067,,,100,http://www.ims.gr.jp/sendaiaoba-royal/,,,,
41017,455180091,宮城県,仙台市青葉区,介護老人保健施設　メープル小田原,カイゴロウジンホケンシセツ　メープルオダワラ,短期入所療養介護（介護老人保健施設）,宮城県仙台市青葉区小田原8丁目6-22,,38.270850218417100,140.892832143517000,022-267-5121,022-267-5122,5370005001225,社会医療法人　康陽会,455180091,,,100,https://maple34.wixsite.com/mysite,,,,
41017,455180059,宮城県,仙台市青葉区,介護老人保健施設ハート五橋,カイゴロウジンホケンシセツハートイツツバシ,短期入所療養介護（介護老人保健施設）,宮城県仙台市青葉区五橋１丁目１番5号,,38.255633200000000,140.880846800000000,022-721-1020,022-721-1025,,医療法人財団あおば会,455180059,,,0,http://www.aobakai-mc.com,,,,
41025,455280040,宮城県,仙台市宮城野区,医療法人松田会介護老人保健施設エバーグリーン・ツルガヤ,イリョウホウジンマツダカイカイゴロウジンホケンシセツエバーグリーン・ツルガヤ,短期入所療養介護（介護老人保健施設）,宮城県仙台市宮城野区鶴ヶ谷字舘下35番地の1,,38.297032500000000,140.920159700000000,050-3387-4124,022-251-1773,,医療法人　松田会,455280040,,,0,http://www.matsuda-hp.com/,,,,
41025,455280024,宮城県,仙台市宮城野区,介護老人保健施設　けやき,カイゴロウジンホケンシセツ　ケヤキ,短期入所療養介護（介護老人保健施設）,宮城県仙台市宮城野区大梶15-27,,38.272368400000000,140.906840500000000,022-257-2020,022-257-2706,5370005001225,社会医療法人康陽会,455280024,,,0,keyaki-kouyoukai.jp,,,,
41041,455480103,宮城県,仙台市太白区,介護老人保健施設やるきになる里,カイゴロウジンホケンシセツヤルキニナルサト,短期入所療養介護（介護老人保健施設）,宮城県仙台市太白区富田字京ノ中111-1（58B-51L）,,38.210243200000000,140.854464800000000,022-302-6401,022-302-6406,3430005000585,社会福祉法人ノテ福祉会,455480103,,,,,,,,
41041,455480012,宮城県,仙台市太白区,介護老人保健施設　茂庭台豊齢ホーム,カイゴロウジンホケンシセツ　モニワダイホウレイホーム,短期入所療養介護（介護老人保健施設）,宮城県仙台市太白区茂庭台二丁目１６番１０号,,38.232997200000000,140.783045300000000,022-281-3190,022-281-3194,1370005003150,仙台市医療センター,455480012,,,158,http://www.hourei.com,,,,
41050,455580043,宮城県,仙台市泉区,介護老人保健施設　ユニットケア泉,カイゴロウジンホケンシセツ　ユニットケアイズミ,短期入所療養介護（介護老人保健施設）,宮城県仙台市泉区大沢３丁目５－５,,38.357899100000000,140.874347500000000,022-771-8811,022-771-8801,,医療法人　共和会,455580043,,,0,http://www.sendai-kyowakai.com/,,,,
41050,455580050,宮城県,仙台市泉区,介護老人保健施設いずみの杜,カイゴロウジンホケンシセツイズミノモリ,短期入所療養介護（介護老人保健施設）,宮城県仙台市泉区松森字西沢２６番地の４,,38.316410900000000,140.914259100000000,022-771-8873,022-771-1853,,医療法人社団清山会,455580050,,,20,http://www.izuminomori.jp/,,,,
41017,455180109,宮城県,仙台市青葉区,仙台ロイヤルケアセンター,センダイロイヤルケアセンター,短期入所療養介護（介護老人保健施設）,宮城県仙台市青葉区みやぎ台一丁目31-1,,38.307360500000000,140.777265000000000,022-394-7651,022-394-6773,4011405000068,医療法人財団　明理会,455180109,,,1,http://www.ims.gr.jp/sendai-rcc/,,,,
41017,455180026,宮城県,仙台市青葉区,国見ナーシングホーム翔裕園,クニミ　ナーシングホーム　ショウユウエン,短期入所療養介護（介護老人保健施設）,宮城県仙台市青葉区国見84-1,,38.274952400000000,140.845129900000000,022-718-5261,022-718-5221,,元気村,455180026,,,0,https://www.genkimuragroup.jp/genkimura/kunimi-nh/,,,,
41025,455280016,宮城県,仙台市宮城野区,介護老人保健施設　コジーケアホーム,カイゴロウジンホケンシセツ　コジーケアホーム,短期入所療養介護（介護老人保健施設）,宮城県仙台市宮城野区岩切字稲荷１４,,38.300729871626400,140.938983578574000,022-255-2525,022-255-2528,5370005001225,社会医療法人　康陽会,455280016,,,1,https://cozycarehome.com,,,,
41041,455480079,宮城県,仙台市太白区,介護老人保健施設　葵の園・仙台,カイゴロウジンホケンシセツ　アオイノソノ・センダイ,短期入所療養介護（介護老人保健施設）,宮城県仙台市太白区鈎取2丁目28-1,,38.229743700000000,140.840787300000000,022-207-7700,022-207-7701,1010005004837,医療法人社団葵会,455480079,,,0,http://www.aoikai.jp,,,,
41041,455480087,宮城県,仙台市太白区,介護老人保健施設　葵の園・柳生,カイゴロウジンホケンシセツ　アオイノソノヤナギウ,短期入所療養介護（介護老人保健施設）,宮城県仙台市太白区柳生字台57-1,,38.201266600000000,140.874579600000000,022-381-8668,022-306-6355,1010005004837,医療法人社団葵会,455480087,,,0,http://www.aoikai.jp/yanagiu/,,,,
41041,455480038,宮城県,仙台市太白区,独立行政法人地域医療機能推進機構仙台南病院附属介護老人保健施設,ドクリツギョウセイホウジンチイキイリョウキノウスイシンキコウセンダイミナミビョウインフゾクカイゴロウジンホケンシセツ,短期入所療養介護（介護老人保健施設）,宮城県仙台市太白区中田町字前沖143番地,,38.190443500000000,140.898886600000000,022-306-1731,022-306-1732,6040005003798,独立行政法人地域医療機能推進機構,455480038,,,100,https://sendaiminami.jcho.go.jp/rouken/,,,,
41041,455480061,宮城県,仙台市太白区,医療法人松田会　介護老人保健施設　エバーグリーン・ヤギヤマ,イリョウホウジンマツダカイカイゴロウジンホケンシセツエバーグリーン・ヤギヤマ,短期入所療養介護（介護老人保健施設）,仙台市太白区八木山香澄町１番２０,,38.246417300000000,140.865281900000000,022－393－8543,022－217－7655,,医療法人松田会,455480061,,,0,http://www.matsuda-hp.com,,,,
41050,455580019,宮城県,仙台市泉区,医療法人　松田会　介護老人保健施設　エバーグリーン・イズミ,イリョウホジンマツダカイカイゴロウジンホケンシセツエバーグリーン・イズミ,短期入所療養介護（介護老人保健施設）,宮城県仙台市泉区実沢字立田屋敷１７番地の１,,38.334461700000000,140.838660200000000,022-378-8877,022-342-6222,,医療法人　　松田会,455580019,,,0,http://www.matsuda-hp.com/,,,,
41050,455580076,宮城県,仙台市泉区,指定短期入所療養介護事業所　介護老人保健施設ファンコート泉,シテイタンキニュウショリョウヨウカイゴジギョウショ　カイゴロウジンホケンシセツファンコートイズミ,短期入所療養介護（介護老人保健施設）,宮城県仙台市泉区西田中字萱場中37-1,,38.323510000000000,140.789431000000000,022-347-4850,022-347-4851,2380005007926,医療法人社団平成会,455580076,,,0,http://www.heiseikai-group.com,,,,
41050,455580027,宮城県,仙台市泉区,医療法人徳洲会　介護老人保健施設　シルバーホーム　いずみ,イリョウホウジントクシュウカイ　カイゴロウジンホケンシセツ　シルバーホーム　イズミ,短期入所療養介護（介護老人保健施設）,宮城県仙台市泉区七北田字駕籠沢１５,,38.326330500000000,140.875087800000000,022-773-7888,022-773-6330,,医療法人　徳洲会,455580027,,,0,http://www.tokushukai.or.jp,,,,
41050,455580068,宮城県,仙台市泉区,介護老人保健施設　プレシオーソ,カイゴロウジンホケンシセツ　プレシオーソ,短期入所療養介護（介護老人保健施設）,宮城県仙台市泉区南光台７丁目１番１８号,,38.298805386754400,140.899199395245000,022-353-6971,022-353-6972,,医療法人　一秀会,455580068,,,0,http://siesta.or.jp,,,,
41050,455580084,宮城県,仙台市泉区,介護老人保健施設　葵の園・仙台泉,カイゴロウジンホケンシセツ　アオイノソノ・センダイイズミ,短期入所療養介護（介護老人保健施設）,宮城県仙台市泉区泉中央南１６番,,38.320844200875400,140.869467180435000,022-776-5660,022-776-5661,1010005004837,医療法人社団葵会,455580084,,,10,https://www.aoikai.jp/sendaiizumi/,,,,
52027,550280036,秋田県,能代市,介護老人保健施設　ケアネットのしろ,カイゴロウジンホケンシセツ　ケアネットノシロ,短期入所療養介護（介護老人保健施設）,秋田県能代市落合字上悪土207番地,,40.224779700000000,140.020937800000000,0185-52-8882,0185-52-8867,,医療法人　京回生会,550280036,,,,,,,,
52027,550280010,秋田県,能代市,介護老人保健施設　友楽苑,カイゴロウジンホケンシセツ　ユウラクエン,短期入所療養介護（介護老人保健施設）,秋田県能代市檜山字新田沢105番地,,40.178130400000000,140.071704500000000,0185-58-2621,0185-58-5136,,能代市山本郡医師会,550280010,,,,,,,,
52019,550180103,秋田県,秋田市,医療法人　運忠会　介護老人保健施設なぎさ,イリョウホウジン　ウンチュウカイ　カイゴロウジンホケンシセツナギサ,短期入所療養介護（介護老人保健施設）,秋田県秋田市土崎港中央四丁目４番２３号,,39.753225400000000,140.072026300000000,018-845-3526,018-845-3560,,医療法人　運忠会,550180103,,,,,,,,
52124,552680043,秋田県,大仙市,介護老人保健施設サングレイス,カイゴロウジンホケンシセツサングレイス,短期入所療養介護（介護老人保健施設）,秋田県大仙市協和上淀川字五百刈田２７８番地５,,39.598273200000000,140.304157800000000,018-892-3260,018-892-3663,,医療法人慧眞会,552680043,,,,,,,,
52094,550980031,秋田県,鹿角市,介護療養型老人保健施設けまない,カイゴリョウヨウガタロウジンホケンシセツケマナイ,短期入所療養介護（介護老人保健施設）,鹿角市十和田毛馬内字下寄熊6-9,,40.266392400000000,140.767730200000000,0186-35-3117,0186-35-5565,,医療法人　寿光会,550980031,,,,http://jyukoukai.jp,,,,
52019,550180053,秋田県,秋田市,介護老人保健施設　悠久荘,カイゴロウジンホケンシセツ　ユウキュウソウ,短期入所療養介護（介護老人保健施設）,秋田市御所野堤台3丁目3番1,,39.671719063426700,140.172470541006000,018-892-7800,018-892-7801,,医療法人　三愛会,550180053,,,0,http://www.akitahigashi-hp.com/yukyusou.html,,,,
52060,550680029,秋田県,男鹿市,短期入所療養介護　たらちね,タンキニュウショリョウヨウカイゴ　タラチネ,短期入所療養介護（介護老人保健施設）,秋田県男鹿市船越字一向６７－１,,39.898069800000000,139.948746000000000,0185-22-6660,0185-22-6659,,医療法人社団柔心会,550680029,,,0,http://www.jusinkai.or.jp,,,,
52019,550180038,秋田県,秋田市,介護老人保健施設　ニコニコ苑,カイゴロウジンホケンシセツ　ニコニコエン,短期入所療養介護（介護老人保健施設）,秋田市下新城中野字琵琶沼138-1,,39.803092300000000,140.059443800000000,018-873-2525,018-873-5825,4410005000520,医療法人久幸会,550180038,,,0,http://www.kyukokai.com/nikonikoen/,,,,
52043,550480032,秋田県,大館市,介護老人保健施設成寿苑,カイゴロウジンホケンシセツセイジュエン,短期入所療養介護（介護老人保健施設）,秋田県大館市釈迦内字狼穴７９番地,,40.311964300000000,140.572793500000000,0186-48-4975,0186-45-2115,9410005003576,社会福祉法人成寿会,550480032,,,0,http://seijuen.or.jp/,,,,
52043,550480024,秋田県,大館市,医療法人光智会　介護老人保健施設大館園,イリョウホウジンコウチカイ　カイゴロウジンホケンシセツオオダテエン,短期入所療養介護（介護老人保健施設）,秋田県大館市芦田子字芦田子南275番地,,40.299191600000000,140.598608800000000,0186-48-5777,0186-48-2289,7410005002919,医療法人光智会,550480024,,,0,http://www.kochikai.jp/,,,,
52027,550280028,秋田県,能代市,独立行政法人地域医療機能推進機構秋田病院附属介護老人保健施設,ドクリツギョウセイホウジンチイキイリョウキノウスイシンキコウアキタビョウインフゾクカイゴロウジンホケンシセツ,短期入所療養介護（介護老人保健施設）,秋田県能代市緑町5番47号,,40.198027700000000,140.035856900000000,0185-52-6600,0185-55-1401,6040005003798,独立行政法人地域医療機能推進機構,550280028,,,0,http://akita.jcho.go.jp/,,,,
52035,550380018,秋田県,横手市,介護老人保健施設やすらぎの苑,カイゴロウジンホケンシセツヤスラギノソノ,短期入所療養介護（介護老人保健施設）,秋田県横手市杉沢字中杉沢400番地,,39.350693100000000,140.565496900000000,0182-33-4001,0182-33-6644,6410005004908,社会医療法人　興生会,550380018,,,2,http://www.kohseikai.com/,,,,
52035,550380026,秋田県,横手市,横手市介護老人保健施設老健おおもり,ヨコテシカイゴロウジンホケンシセツロウケンオオモリ,短期入所療養介護（介護老人保健施設）,秋田県横手市大森町字菅生田245-207,,39.351691900000000,140.417494900000000,0182-26-4021,0182-26-4023,,横手市,550380026,,,0,,,,,
52035,552780017,秋田県,横手市,介護老人保健施設　りんごの里　福寿園,カイゴロウジンホケンシセツ　リンゴノサト　フクジュエン,短期入所療養介護（介護老人保健施設）,秋田県横手市増田町吉野字梨木塚100-1番地,,39.201688400000000,140.582021800000000,0182-45-3131,0182-45-3300,6410005005245,社会福祉法人横手福寿会,552780017,,,0,http://yokote-fukuzyukai.jp/,,,,
52035,552780033,秋田県,横手市,介護老人保健施設　西風苑,カイゴロウジンホケンシセツ　セイフウエン,短期入所療養介護（介護老人保健施設）,秋田県横手市平鹿町浅舞字新堀９１,,39.269748600000000,140.483731400000000,0182-24-3033,0182-24-3072,6410005005138,医療法人平鹿浩仁会,552780033,,,,http://roukenseifuen.wix.com/seifuen,,,,
52019,550180095,秋田県,秋田市,遊心苑短期入所療養介護事業所,ユウシンエンタンキニュウショリョウヨウカイゴジギョウショ,短期入所療養介護（介護老人保健施設）,秋田県秋田市添川字境内川原１９６番地１,,39.752377451799100,140.133314461377000,018-831-3666,018-831-3560,3410005000653,社会福祉法人遊心苑,550180095,,,0,http://www.yushinen.or.jp/,,,,
52019,550180111,秋田県,秋田市,介護老人保健施設　山盛苑,カイゴロウジンホケンシセツ　サンセイエン,短期入所療養介護（介護老人保健施設）,秋田県秋田市太平山谷字中山227番地2,,39.729158800000000,140.264479600000000,018-838-3700,018-838-3330,1410005000639,社会福祉法人　賛成福祉会,550180111,,,0,http://www.sanfuku.or.jp,,,,
52019,550180079,秋田県,秋田市,介護老人保健施設千秋苑,カイゴロウジンホケンシセツセンシュウエン,短期入所療養介護（介護老人保健施設）,秋田市外旭川字神田592番地,,39.751249300000000,140.118630400000000,018-868-1355,018-868-5333,5410005000635,社会福祉法人憲寿会,550180079,,,5,http://www.kenjukai-senshuen.jp,,,,
52019,550180046,秋田県,秋田市,介護老人保健施設　桜の園,カイゴロウジンホケンシセツ　サクラノソノ,短期入所療養介護（介護老人保健施設）,秋田市下北手梨平字登館8番地,,39.702117600000000,140.161590500000000,018-839-5977,018-839-5971,5410005000627,社会福祉法人　桜丘会,550180046,,,,http://www.oukyukai.net/,,,,
52019,550180020,秋田県,秋田市,友愛の郷短期入所療養介護施設,ユウアイノサトタンキニュウショリョウヨウカイゴシセツ,短期入所療養介護（介護老人保健施設）,秋田市浜田字元中村２８０番地２９,,39.681108700000000,140.068858500000000,018-828-1100,018-828-1103,5410005000643,社会福祉法人　新成会,550180020,,,0,http://shinseikai-akita.com,,,,
52019,550180137,秋田県,秋田市,介護老人保健施設　かみの里,カイゴロウジンホケンシセツ　カミノサト,短期入所療養介護（介護老人保健施設）,秋田市上北手百崎字二タ子沢1-6,,39.689543900000000,140.154372100000000,018-889-6294,018-829-3767,4410005000644,社会福祉法人　成光会,550180137,,,0,http://www.kaminosato.or.jp/,,,,
52019,550180087,秋田県,秋田市,介護老人保健施設あいぜん苑,カイゴロウジンホケンシセツ　アイゼンエン,短期入所療養介護（介護老人保健施設）,秋田市上新城道川字愛染58番地,,39.780980200000000,140.145659800000000,018-870-2001,018-870-2333,3410005000629,社会福祉法人　愛染会,550180087,,,100,http://aizenkai.com/,,,,
52019,552480014,秋田県,秋田市,介護老人保健施設　シルバーケアセンター清遊園,カイゴロウジンホケンシセツ　シルバーケアセンター　セイユウエン,短期入所療養介護（介護老人保健施設）,秋田県秋田市河辺戸島字上野４－３,,39.632985200000000,140.194215700000000,018-882-3730,018-882-3729,9410005000573,医療法人　祐愛会,552480014,,,0,http://www.myclinic.ne.jp/yuaikaikatoh/,,,,
52019,550180129,秋田県,秋田市,介護老人保健施設　ふれ愛の里　短期入所療養介護,カイゴロウジンホケンシセツ　フレアイノサト　タンキニュウショリョウヨウカイゴ,短期入所療養介護（介護老人保健施設）,秋田県秋田市豊岩小山字中山２１６番地２７,,39.634846800000000,140.123758100000000,018-888-8201,018-888-8205,1410005000647,社会福祉法人豊生会,550180129,,,0,http://fureainosato.or.jp,,,,
52116,552380024,秋田県,潟上市,老人保健施設　くらかけの里,ロウジンホケンシセツ　クラカケノサト,短期入所療養介護（介護老人保健施設）,秋田県潟上市天王字鶴沼台４３－２３１,,39.861320800000000,140.016917300000000,018-878-6622,018-878-6611,7410005001383,社会福祉法人　敬仁会,552380024,,,0,http://keijinkai.akita.jp/kurakake/,,,,
52108,552580029,秋田県,由利本荘市,介護老人保健施設グランドファミリー西目,カイゴロウジンホケンシセツグランドファミリーニシメ,短期入所療養介護（介護老人保健施設）,秋田県由利本荘市西目町沼田字新道下２－６,,39.353127800000000,140.017420500000000,0184-32-1011,0184-33-2988,1410005002073,社会医療法人　青嵐会,552580029,,,0,,,,,
52108,552580037,秋田県,由利本荘市,介護老人保健施設　あまさぎ園,カイゴロウジンホケンシセツ　アマサギエン,短期入所療養介護（介護老人保健施設）,秋田県由利本荘市岩城冨田字根本9-3,,39.505303800000000,140.086965400000000,0184-62-5001,0184-62-5010,8410005002158,社会福祉法人　久盛会,552580037,,,1,http://www.amasagi.or.jp,,,,
52108,550580013,秋田県,由利本荘市,介護老人保健施設「しょうわ」,カイゴロウジンホケンシセツ　ショウワ,短期入所療養介護（介護老人保健施設）,秋田県由利本荘市石脇字田尻33番地,,39.390278300000000,140.022195800000000,0184-23-7100,0184-23-7103,9410005002066,医療法人　荘和会,550580013,,,,,,,,
52159,552680068,秋田県,仙北市,介護老人保健施設　田沢の郷,カイゴロウジンホケンシセツ　タザワノサト,短期入所療養介護（介護老人保健施設）,秋田県仙北市田沢湖生保内字上清水６９８番地,,39.698794300000000,140.715339500000000,0187-58-0112,0187-58-0022,4410005004851,社会福祉法人　こまくさ苑,552680068,,,,http://www.tazawanosato.jp,,,,
52159,551280019,秋田県,仙北市,仙北市介護老人保健施設にしき園,センボクシカイゴロウジンホケンシセツニシキエン,短期入所療養介護（介護老人保健施設）,秋田県仙北市西木町門屋字屋敷田100番地,,39.659638400000000,140.565612800000000,0187-47-3211,0187-47-3213,,仙北市,551280019,,,0,,,,,
52094,550980056,秋田県,鹿角市,介護老人保健施設　けいあい,カイゴロウジンホケンシセツ　ケイアイ,短期入所療養介護（介護老人保健施設）,秋田県鹿角市花輪字六月田78-1,,40.199910700000000,140.789778400000000,0186-25-8500,0186-25-8501,4410005003432,医療法人　恵愛会,550980056,,,0,,,,,
52078,552880023,秋田県,湯沢市,介護老人保健施設　ゆーとぴあ神室,カイゴロウジンホケンシセツ　ユートピアカムロ,短期入所療養介護（介護老人保健施設）,秋田県湯沢市小野字東堺76番地,,39.064733200000000,140.454918400000000,0183-52-5111,0183-52-5112,5410005002615,医療法人　せいとく会,552880023,,,0,http://kamuro5111.com/,,,,
52078,550780019,秋田県,湯沢市,介護老人保健施設昭平苑,カイゴロウジンホケンシセツショウヘイエン,短期入所療養介護（介護老人保健施設）,秋田県湯沢市柳田字中嶋２２７番地の１,,39.184528800000000,140.460807600000000,0183-72-1117,0183-72-1118,1410005002453,医療法人仁恵会,550780019,,,0,,,,,
53635,552380016,秋田県,八郎潟町,介護老人保健施設　榮寿苑,カイゴロウジンホケンシセツ　エイジュエン,短期入所療養介護（介護老人保健施設）,秋田県南秋田郡八郎潟町真坂字沢田43-10,,39.968158500000000,140.083241300000000,018-875-3881,018-875-3883,6410005001376,社会福祉法人　榮寿苑福祉会,552380016,,,0,http://www13.plala.or.jp/eijyuen/,,,,
52019,550180061,秋田県,秋田市,三楽園短期入所療養介護,サンラクエンタンキニュウショリョウヨウカイゴ,短期入所療養介護（介護老人保健施設）,秋田県秋田市飯島字堀川８４番地２０,,39.791135100000000,140.061563800000000,018-857-3101,018-857-3131,6410005000519,医療法人　久盛会,550180061,,,0,http://www.kyusei.or.jp,,,,
52116,552380040,秋田県,潟上市,介護老人保健施設　ほのぼの苑,カイゴロウジンホケンシセツ　ホノボノエン,短期入所療養介護（介護老人保健施設）,秋田県潟上市昭和大久保字街道下92-1,,39.871081400000000,140.060879600000000,018-877-7115,018-877-7481,1410005001364,医療法人　正和会,552380040,,,0,http://www.seiwakai-net.com/,,,,
52124,550880066,秋田県,大仙市,介護老人保健施設　なごみのさと,カイゴロウジンホケンシセツ　ナゴミノサト,短期入所療養介護（介護老人保健施設）,大仙市大曲船場町１丁目１番４号,,39.457937600000000,140.471448400000000,0187-86-0511,0187-86-0505,7410005005500,社会福祉法人あけぼの会,550880066,,,0,http://www.nagomi-a.jp/,,,,
52124,550880041,秋田県,大仙市,介護老人保健施設幸寿園,カイゴロウジンホケンシセツコウジュエン,短期入所療養介護（介護老人保健施設）,大仙市強首字上野台１２－１５,,39.543860200000000,140.299909300000000,0187-77-2226,0187-77-2228,9410005004616,社会福祉法人　大仙ふくし会,550880041,,,0,http://www.daisen-f.com/koujuen.html,,,,
52124,550880058,秋田県,大仙市,介護老人保健施設八乙女荘,カイゴロウジンホケンシセツヤオトメソウ,短期入所療養介護（介護老人保健施設）,秋田県大仙市北長野字野口前２３番地,,39.549113300000000,140.547205100000000,０１８７－５６－２８８８,０１８７－５６－２５６７,9410005004616,社会福祉法人　大仙ふくし会,550880058,,,0,http://www.daisen-f.com/rinen.html,,,,
52108,550580021,秋田県,由利本荘市,介護老人保健施設ひまわりの里,カイゴロウジンホケンシセツヒマワリノサト,短期入所療養介護（介護老人保健施設）,秋田県由利本荘市浜三川字小山口２０番地,,39.415998200000000,140.034209800000000,0184-27-1133,0184-27-1136,9410005002157,社会福祉法人本荘久寿会,550580021,,,0,http://www.honjo-kyujyukai.net/,,,,
52094,550980015,秋田県,鹿角市,介護老人保健施設　いこいの里,カイゴロウジンホケンシセツ　イコイノサト,短期入所療養介護（介護老人保健施設）,秋田県鹿角市八幡平字小山50番地,,40.140095200000000,140.802041200000000,0186-32-3330,0186-32-2220,2410005003434,医療法人翠峰会,550980015,,,100,https://suihoukai-ikoinosato.com/,,,,
52132,552180010,秋田県,北秋田市,介護老人保健施設もりよし荘,カイゴロウジンホケンシセツモリヨシソウ,短期入所療養介護（介護老人保健施設）,秋田県北秋田市米内沢字七曲２５番地,,40.118433600000000,140.379826900000000,0186-72-5030,0186-72-5017,9410005003205,社会福祉法人交楽会,552180010,,,0,http://www.akita-kouraku.jp/,,,,
53481,552280018,秋田県,三種町,介護老人保健施設やかた,カイゴロウジンホケンシセツヤカタ,短期入所療養介護（介護老人保健施設）,秋田県山本郡三種町鹿渡字猿田牛渕２５番地６１,,40.038841700000000,140.091526900000000,0185-72-2010,0185-72-2012,4410005004001,社会福祉法人　縄文の杜,552280018,,,,http://www.yakata.org,,,,
53660,552380032,秋田県,井川町,介護老人保健施設　　翠香苑,カイゴロウジンホケンシセツ　　スイコウエン,短期入所療養介護（介護老人保健施設）,秋田県南秋田郡井川町小竹花字道端14-1,,39.909969400000000,140.084404800000000,018-874-2930,018-874-2601,2410005001363,医療法人　　仁政会,552380032,,,0,http://smc-jinseikai.com/jinseikai/124/,,,,
53619,552380057,秋田県,五城目町,医療法人　正和会　介護老人保健施設　湖東老健,イリョウホウジン　セイワカイ　カイゴロウジンホケンシセツ　コトウロウケン,短期入所療養介護（介護老人保健施設）,秋田県南秋田郡五城目町字上町２８４－１,,39.947539000000000,140.125470900000000,018-855-1570,018-855-1555,1410005001364,医療法人　正和会,552380057,,,0,http://www.seiwakai-net.com,,,,
54348,552680050,秋田県,美郷町,介護老人保健施設　杏授苑,カイゴロウジンホケンシセツ　キョウジュエン,短期入所療養介護（介護老人保健施設）,秋田県仙北郡美郷町野中字下明子２１４,,39.426134200000000,140.555962700000000,0187-84-4065,0187-84-3066,6410005004164,医療法人　寿康会,552680050,,,0,,,,,
54631,552880015,秋田県,羽後町,介護老人保健施設　照隅苑,カイゴロウジンホケンシセツ　ショウグウエン,短期入所療養介護（介護老人保健施設）,秋田県雄勝郡羽後町床舞字軽内１９８番地１,,39.181213300000000,140.412880900000000,0183-78-7200,0183-78-7202,1410005002544,医療法人　而学会,552880015,,,0,,,,,
52141,552580011,秋田県,にかほ市,介護老人保健施設　栗山荘,カイゴロウジンホケンシセツ　クリヤマソウ,短期入所療養介護（介護老人保健施設）,秋田県にかほ市象潟町小滝字麻針堰18,,39.168760500000000,139.947035200000000,0184-44-2210,0184-44-2344,8410005002240,医療法人（社団）薫風会,552580011,,,,http://www.kisakata-kunpukai.or.jp/,,,,
62014,650180011,山形県,山形市,介護老人保健施設さくらパレス,カイゴロウジンホケンシセツサクラパレス,短期入所療養介護（介護老人保健施設）,山形市桜田西４丁目3-26,,38.218183500000000,140.318615900000000,023-628-3980,023-628-3986,9390005000601,医療法人社団悠愛会,650180011,,,0,,,,,
